{"aggregateCapacityFactor":22.5,"facilities":[{"active":true,"capacityFactor":30.9,"code":"ARWF","currentPower":74.7,"dataFirstSeen":"2016-08-19T10:35:00+08:00","lat":-37.263393,"lng":143.082116,"name":"Ararat","network":"NEM","region":"VIC1","totalCapacity":241.59,"units":[{"active":true,"capacity":241.59,"capacityFactor":30.9,"code":"ARWF1","currentPower":74.7,"lastSeen":"2026-04-08T20:00:00+08:00"}]},{"active":true,"capacityFactor":22.8,"code":"BHWF","currentPower":24.313,"dataFirstSeen":"2015-02-24T08:45:00+10:00","lat":-38.746897,"lng":145.949104,"name":"Bald Hills","network":"NEM","region":"VIC1","totalCapacity":106.6,"units":[{"active":true,"capacity":106.6,"capacityFactor":22.8,"code":"BALDHWF1","currentPower":24.313,"lastSeen":"2026-04-08T20:00:00+10:00"}]},{"active":true,"capacityFactor":11,"code":"BANGOWF","currentPower":26.7972,"dataFirstSeen":"2021-01-14T12:40:00+10:00","lat":-34.767208,"lng":148.921499,"name":"Bango","network":"NEM","region":"NSW1","totalCapacity":243.8,"units":[{"active":true,"capacity":84.8,"capacityFactor":8.5,"code":"BANGOWF2","currentPower":7.1997,"lastSeen":"2026-04-08T20:00:00+10:00"},{"active":true,"capacity":159,"capacityFactor":12.3,"code":"BANGOWF1","currentPower":19.5975,"lastSeen":"2026-04-08T20:00:00+10:00"}]},{"active":true,"capacityFactor":6.1,"code":"BRYB1WF1","currentPower":17.798099999999998,"dataFirstSeen":"2021-02-16T01:05:00+10:00","lat":-37.885519,"lng":143.453446,"name":"Berrybank","network":"NEM","region":"VIC1","totalCapacity":289.6,"units":[{"active":true,"capacity":180.6,"capacityFactor":6.8,"code":"BRYB1WF1","currentPower":12.2408,"lastSeen":"2026-04-08T20:00:00+10:00"},{"active":true,"capacity":109,"capacityFactor":5.1,"code":"BRYB2WF2","currentPower":5.5573,"lastSeen":"2026-04-08T20:00:00+10:00"}]},{"active":true,"capacityFactor":27.3,"code":"BIALAWF","currentPower":29.9804,"dataFirstSeen":"2020-06-20T12:10:00+10:00","lat":-34.587836,"lng":149.369848,"name":"Biala","network":"NEM","region":"NSW1","totalCapacity":110,"units":[{"active":true,"capacity":110,"capacityFactor":27.3,"code":"GULLRWF2","currentPower":29.9804,"lastSeen":"2026-04-08T20:00:00+10:00"}]},{"active":true,"capacityFactor":1.7,"code":"BOCOROCK","currentPower":1.87,"dataFirstSeen":"2014-08-29T00:10:00+10:00","lat":-36.574527,"lng":149.124863,"name":"Boco Rock","network":"NEM","region":"NSW1","totalCapacity":113.18,"units":[{"active":true,"capacity":113.18,"capacityFactor":1.7,"code":"BOCORWF1","currentPower":1.87,"lastSeen":"2026-04-08T20:00:00+10:00"}]},{"active":true,"capacityFactor":4.2,"code":"BODWF","currentPower":4.7512,"dataFirstSeen":"2018-08-08T11:40:00+10:00","lat":-32.414669,"lng":149.099633,"name":"Bodangora","network":"NEM","region":"NSW1","totalCapacity":113.19,"units":[{"active":true,"capacity":113.19,"capacityFactor":4.2,"code":"BODWF1","currentPower":4.7512,"lastSeen":"2026-04-08T20:00:00+10:00"}]},{"active":true,"capacityFactor":23,"code":"BULGANA","currentPower":47.0098,"dataFirstSeen":"2020-05-14T11:15:00+10:00","lat":-37.039507,"lng":142.982799,"name":"Bulgana Green Power Hub","network":"NEM","region":"VIC1","totalCapacity":204,"units":[{"active":true,"capacity":204,"capacityFactor":23,"code":"BULGANA1","currentPower":47.0098,"lastSeen":"2026-04-08T20:00:00+10:00"}]},{"active":true,"capacityFactor":25.2,"code":"CANUNDA1","currentPower":11.6136,"dataFirstSeen":"2009-07-01T00:05:00+10:00","lat":-37.698303,"lng":140.383633,"name":"Canunda","network":"NEM","region":"SA1","totalCapacity":46,"units":[{"active":true,"capacity":46,"capacityFactor":25.2,"code":"CNUNDAWF","currentPower":11.6136,"lastSeen":"2026-04-08T20:00:00+10:00"}]},{"active":false,"capacityFactor":0,"code":"CAPTL_WF","currentPower":0,"dataFirstSeen":"2009-07-04T17:10:00+10:00","lat":-35.123534,"lng":149.500249,"name":"Capital","network":"NEM","region":"NSW1","totalCapacity":140,"units":[{"active":true,"capacity":140,"capacityFactor":0,"code":"CAPTL_WF","currentPower":0,"lastSeen":"2026-04-08T19:40:00+10:00"}]},{"active":true,"capacityFactor":52,"code":"CATHROCK","currentPower":34.3,"dataFirstSeen":"2009-07-01T00:05:00+10:00","lat":-34.848741,"lng":135.592649,"name":"Cathedral Rocks","network":"NEM","region":"SA1","totalCapacity":66,"units":[{"active":true,"capacity":66,"capacityFactor":52,"code":"CATHROCK","currentPower":34.3,"lastSeen":"2026-04-08T20:00:00+10:00"}]},{"active":true,"capacityFactor":42.4,"code":"CTHLWF","currentPower":62.736,"dataFirstSeen":"2020-01-07T10:35:00+10:00","lat":-42.149661,"lng":146.724045,"name":"Cattle Hill","network":"NEM","region":"TAS1","totalCapacity":148,"units":[{"active":true,"capacity":148,"capacityFactor":42.4,"code":"CTHLWF1","currentPower":62.736,"lastSeen":"2026-04-08T20:00:00+10:00"}]},{"active":true,"capacityFactor":30.1,"code":"CHALLWF","currentPower":15.8,"dataFirstSeen":"2009-07-01T00:05:00+10:00","lat":-37.395466,"lng":143.10459,"name":"Challicum Hills","network":"NEM","region":"VIC1","totalCapacity":52.5,"units":[{"active":true,"capacity":52.5,"capacityFactor":30.1,"code":"CHALLHWF","currentPower":15.8,"lastSeen":"2026-04-08T20:00:00+10:00"}]},{"active":true,"capacityFactor":21.3,"code":"CHYTWF","currentPower":12.28,"dataFirstSeen":"2020-05-01T18:40:00+10:00","lat":-37.1018,"lng":145.2656,"name":"Cherry Tree","network":"NEM","region":"VIC1","totalCapacity":57.6,"units":[{"active":true,"capacity":57.6,"capacityFactor":21.3,"code":"CHYTWF1","currentPower":12.28,"lastSeen":"2026-04-08T20:00:00+10:00"}]},{"active":true,"capacityFactor":75.4,"code":"CLRKCWF","currentPower":338.41549999999995,"dataFirstSeen":"2024-10-02T02:05:00+10:00","lat":-22.850446,"lng":149.453252,"name":"Clarke Creek","network":"NEM","region":"QLD1","totalCapacity":449,"units":[{"active":true,"capacity":345.5,"capacityFactor":76.9,"code":"CLRKCWF1","currentPower":265.691,"lastSeen":"2026-04-08T20:00:00+10:00"},{"active":true,"capacity":103.5,"capacityFactor":70.3,"code":"CLRKCWF2","currentPower":72.7245,"lastSeen":"2026-04-08T20:00:00+10:00"}]},{"active":true,"capacityFactor":56.6,"code":"CLEMGPWF","currentPower":32.2717,"dataFirstSeen":"2009-05-07T15:35:00+10:00","lat":-33.489773,"lng":138.111695,"name":"Clements Gap","network":"NEM","region":"SA1","totalCapacity":57,"units":[{"active":true,"capacity":57,"capacityFactor":56.6,"code":"CLEMGPWF","currentPower":32.2717,"lastSeen":"2026-04-08T20:00:00+10:00"}]},{"active":true,"capacityFactor":3.2,"code":"COLWF01","currentPower":7.1969,"dataFirstSeen":"2020-11-12T22:05:00+10:00","lat":-34.862066,"lng":149.388245,"name":"Collector","network":"NEM","region":"NSW1","totalCapacity":226,"units":[{"active":true,"capacity":226,"capacityFactor":3.2,"code":"COLWF01","currentPower":7.1969,"lastSeen":"2026-04-08T20:00:00+10:00"}]},{"active":true,"capacityFactor":24.4,"code":"COOPGWF","currentPower":110.1,"dataFirstSeen":"2019-06-24T11:15:00+10:00","lat":-26.717004,"lng":151.449177,"name":"Coopers Gap","network":"NEM","region":"QLD1","totalCapacity":452,"units":[{"active":true,"capacity":452,"capacityFactor":24.4,"code":"COOPGWF1","currentPower":110.1,"lastSeen":"2026-04-08T20:00:00+10:00"}]},{"active":true,"capacityFactor":14.5,"code":"CROOKWF2","currentPower":13.9229,"dataFirstSeen":"2018-08-14T08:50:00+10:00","lat":-34.556855,"lng":149.609565,"name":"Crookwell 2","network":"NEM","region":"NSW1","totalCapacity":96.04,"units":[{"active":true,"capacity":96.04,"capacityFactor":14.5,"code":"CROOKWF2","currentPower":13.9229,"lastSeen":"2026-04-08T20:00:00+10:00"}]},{"active":true,"capacityFactor":16.4,"code":"CROOKWF3","currentPower":9.3232,"dataFirstSeen":"2024-05-22T14:00:00+10:00","lat":-34.484645,"lng":149.54447,"name":"Crookwell 3","network":"NEM","region":"NSW1","totalCapacity":57,"units":[{"active":true,"capacity":57,"capacityFactor":16.4,"code":"CROOKWF3","currentPower":9.3232,"lastSeen":"2026-04-08T20:00:00+10:00"}]},{"active":true,"capacityFactor":29.8,"code":"CROWLWF","currentPower":23.809,"dataFirstSeen":"2018-12-09T13:55:00+10:00","lat":-36.97615,"lng":143.097998,"name":"Crowlands","network":"NEM","region":"VIC1","totalCapacity":79.95,"units":[{"active":true,"capacity":79.95,"capacityFactor":29.8,"code":"CROWLWF1","currentPower":23.809,"lastSeen":"2026-04-08T20:00:00+10:00"}]},{"active":true,"capacityFactor":4,"code":"CRURWF1","currentPower":5.6,"dataFirstSeen":"2020-12-02T11:35:00+10:00","lat":-32.864748,"lng":149.81297,"name":"Crudine Ridge","network":"NEM","region":"NSW1","totalCapacity":141,"units":[{"active":true,"capacity":141,"capacityFactor":4,"code":"CRURWF1","currentPower":5.6,"lastSeen":"2026-04-08T20:00:00+10:00"}]},{"active":true,"capacityFactor":8.8,"code":"CULLERIN","currentPower":2.63,"dataFirstSeen":"2009-07-01T00:05:00+10:00","lat":-34.809208,"lng":149.399185,"name":"Cullerin Range","network":"NEM","region":"NSW1","totalCapacity":30,"units":[{"active":true,"capacity":30,"capacityFactor":8.8,"code":"CULLRGWF","currentPower":2.63,"lastSeen":"2026-04-08T20:00:00+10:00"}]},{"active":true,"capacityFactor":63.7,"code":"DIAPURWF","currentPower":5.1,"dataFirstSeen":"2021-11-25T17:25:00+10:00","lat":-36.339953,"lng":141.447361,"name":"Diapur 2","network":"NEM","region":"VIC1","totalCapacity":8,"units":[{"active":true,"capacity":8,"capacityFactor":63.7,"code":"DIAPURWF1","currentPower":5.1,"lastSeen":"2026-04-08T20:00:00+10:00"}]},{"active":true,"capacityFactor":16.8,"code":"DULAWF","currentPower":30.2998,"dataFirstSeen":"2023-04-13T11:40:00+10:00","lat":-26.631438,"lng":149.867554,"name":"Dulacca","network":"NEM","region":"QLD1","totalCapacity":180,"units":[{"active":true,"capacity":180,"capacityFactor":16.8,"code":"DULAWF1","currentPower":30.2998,"lastSeen":"2026-04-08T20:00:00+10:00"}]},{"active":true,"capacityFactor":16.8,"code":"DUNDWF","currentPower":56.44,"dataFirstSeen":"2020-03-11T13:50:00+10:00","lat":-37.863894,"lng":142.943454,"name":"Dundonnell","network":"NEM","region":"VIC1","totalCapacity":335,"units":[{"active":true,"capacity":46,"capacityFactor":16.6,"code":"DUNDWF2","currentPower":7.63,"lastSeen":"2026-04-08T20:00:00+10:00"},{"active":true,"capacity":168,"capacityFactor":14.4,"code":"DUNDWF1","currentPower":24.19,"lastSeen":"2026-04-08T20:00:00+10:00"},{"active":true,"capacity":121,"capacityFactor":20.3,"code":"DUNDWF3","currentPower":24.62,"lastSeen":"2026-04-08T20:00:00+10:00"}]},{"active":true,"capacityFactor":10.6,"code":"ELAINEWF","currentPower":8.82,"dataFirstSeen":"2020-04-07T04:25:00+10:00","lat":-37.6352,"lng":144.0237,"name":"Elaine","network":"NEM","region":"VIC1","totalCapacity":83.6,"units":[{"active":true,"capacity":83.6,"capacityFactor":10.6,"code":"ELAINWF1","currentPower":8.82,"lastSeen":"2026-04-08T20:00:00+10:00"}]},{"active":false,"capacityFactor":0,"code":"FLYCRKWF","currentPower":0,"dataFirstSeen":"2023-09-20T11:00:00+10:00","lat":-33.517716,"lng":149.052949,"name":"Flyers Creek","network":"NEM","region":"NSW1","totalCapacity":145,"units":[{"active":true,"capacity":145,"capacityFactor":0,"code":"FLYCRKWF","currentPower":0,"lastSeen":"2026-04-08T20:00:00+10:00"}]},{"active":true,"capacityFactor":5.9,"code":"GPWFEST","currentPower":44.78,"dataFirstSeen":"2024-08-21T11:45:00+10:00","lat":-37.9729,"lng":143.783,"name":"Golden Plains East","network":"NEM","region":"VIC1","totalCapacity":756.4,"units":[{"active":true,"capacity":248,"capacityFactor":4.4,"code":"GPWFEST1","currentPower":10.81,"lastSeen":"2026-04-08T20:00:00+10:00"},{"active":true,"capacity":260.4,"capacityFactor":4.9,"code":"GPWFEST2","currentPower":12.83,"lastSeen":"2026-04-08T20:00:00+10:00"},{"active":true,"capacity":248,"capacityFactor":8.5,"code":"GPWFEST3","currentPower":21.14,"lastSeen":"2026-04-08T20:00:00+10:00"}]},{"active":true,"capacityFactor":4.1,"code":"GPWFWST","currentPower":10.8,"dataFirstSeen":"2026-01-28T14:50:00+10:00","lat":-37.90844,"lng":143.664887,"name":"Golden Plains West","network":"NEM","region":"VIC1","totalCapacity":266,"units":[{"active":true,"capacity":266,"capacityFactor":4.1,"code":"GPWFWST1","currentPower":10.8,"lastSeen":"2026-04-08T20:00:00+10:00"}]},{"active":true,"capacityFactor":13.8,"code":"GSWF","currentPower":56.870000000000005,"dataFirstSeen":"2024-04-04T14:50:00+10:00","lat":-33.682196,"lng":138.936249,"name":"Goyder South","network":"NEM","region":"SA1","totalCapacity":412,"units":[{"active":true,"capacity":203,"capacityFactor":6.4,"code":"GSWF1B1","currentPower":12.98,"lastSeen":"2026-04-08T20:00:00+10:00"},{"active":true,"capacity":209,"capacityFactor":21,"code":"GSWF1A","currentPower":43.89,"lastSeen":"2026-04-08T20:00:00+10:00"}]},{"active":false,"capacityFactor":0,"code":"GRANWF","currentPower":0,"dataFirstSeen":"2020-01-28T12:40:00+10:00","lat":-41.778439,"lng":145.065517,"name":"Granville Harbour","network":"NEM","region":"TAS1","totalCapacity":110,"units":[{"active":true,"capacity":110,"capacityFactor":0,"code":"GRANWF1","currentPower":0,"lastSeen":"2026-04-08T16:30:00+10:00"}]},{"active":true,"capacityFactor":16.6,"code":"GULLRGWF","currentPower":27.3846,"dataFirstSeen":"2013-12-10T18:05:00+10:00","lat":-34.615245,"lng":149.45808,"name":"Gullen Range","network":"NEM","region":"NSW1","totalCapacity":165,"units":[{"active":true,"capacity":165,"capacityFactor":16.6,"code":"GULLRWF1","currentPower":27.3846,"lastSeen":"2026-04-08T20:00:00+10:00"}]},{"active":true,"capacityFactor":47,"code":"GUNNING","currentPower":21.8731,"dataFirstSeen":"2011-04-05T10:55:00+10:00","lat":-34.691531,"lng":149.373013,"name":"Gunning","network":"NEM","region":"NSW1","totalCapacity":46.5,"units":[{"active":true,"capacity":46.5,"capacityFactor":47,"code":"GUNNING1","currentPower":21.8731,"lastSeen":"2026-04-08T20:00:00+10:00"}]},{"active":true,"capacityFactor":77.1,"code":"HALLWF","currentPower":73.2,"dataFirstSeen":"2007-12-19T05:50:00+10:00","lat":-33.328434,"lng":138.704669,"name":"Hallett 1","network":"NEM","region":"SA1","totalCapacity":95,"units":[{"active":true,"capacity":95,"capacityFactor":77.1,"code":"HALLWF1","currentPower":73.2,"lastSeen":"2026-04-08T20:00:00+10:00"}]},{"active":true,"capacityFactor":76.9,"code":"HALLWF2","currentPower":54.93,"dataFirstSeen":"2009-05-12T14:55:00+10:00","lat":-33.53821,"lng":138.857215,"name":"Hallett 2","network":"NEM","region":"SA1","totalCapacity":71.4,"units":[{"active":true,"capacity":71.4,"capacityFactor":76.9,"code":"HALLWF2","currentPower":54.93,"lastSeen":"2026-04-08T20:00:00+10:00"}]},{"active":true,"capacityFactor":13.6,"code":"HD1WF","currentPower":12.88,"dataFirstSeen":"2024-06-17T08:55:00+10:00","lat":-38.148008,"lng":142.360925,"name":"Hawkesdale","network":"NEM","region":"VIC1","totalCapacity":94.6,"units":[{"active":true,"capacity":94.6,"capacityFactor":13.6,"code":"HD1WF1","currentPower":12.88,"lastSeen":"2026-04-08T20:00:00+10:00"}]},{"active":true,"capacityFactor":76.4,"code":"HORNSDAL","currentPower":78.2,"dataFirstSeen":"2016-06-23T16:55:00+10:00","lat":-33.05982,"lng":138.537673,"name":"Hornsdale","network":"NEM","region":"SA1","totalCapacity":102.4,"units":[{"active":true,"capacity":102.4,"capacityFactor":76.4,"code":"HDWF1","currentPower":78.2,"lastSeen":"2026-04-08T20:00:00+10:00"}]},{"active":true,"capacityFactor":73.3,"code":"HORNSDAL2","currentPower":75.1,"dataFirstSeen":"2017-02-21T15:35:00+10:00","lat":-33.05982,"lng":138.537673,"name":"Hornsdale 2","network":"NEM","region":"SA1","totalCapacity":102.4,"units":[{"active":true,"capacity":102.4,"capacityFactor":73.3,"code":"HDWF2","currentPower":75.1,"lastSeen":"2026-04-08T20:00:00+10:00"}]},{"active":true,"capacityFactor":76,"code":"HORNSDAL3","currentPower":85.1,"dataFirstSeen":"2017-08-18T07:45:00+10:00","lat":-33.05982,"lng":138.537673,"name":"Hornsdale 3","network":"NEM","region":"SA1","totalCapacity":112,"units":[{"active":true,"capacity":112,"capacityFactor":76,"code":"HDWF3","currentPower":85.1,"lastSeen":"2026-04-08T20:00:00+10:00"}]},{"active":true,"capacityFactor":79,"code":"KABANWF","currentPower":123.314,"dataFirstSeen":"2022-09-26T00:05:00+10:00","lat":-17.560606,"lng":145.413125,"name":"Kaban","network":"NEM","region":"QLD1","totalCapacity":156,"units":[{"active":true,"capacity":156,"capacityFactor":79,"code":"KABANWF1","currentPower":123.314,"lastSeen":"2026-04-08T20:00:00+10:00"}]},{"active":true,"capacityFactor":62.7,"code":"KENNEDY","currentPower":27.1,"dataFirstSeen":"2021-07-06T13:20:00+10:00","lat":-20.872792,"lng":144.413034,"name":"Kennedy Energy Park","network":"NEM","region":"QLD1","totalCapacity":43.2,"units":[{"active":true,"capacity":43.2,"capacityFactor":62.7,"code":"KEPWF1","currentPower":27.1,"lastSeen":"2026-04-08T20:00:00+10:00"}]},{"active":true,"capacityFactor":46.1,"code":"KIATAWF","currentPower":14.3,"dataFirstSeen":"2017-11-10T09:35:00+10:00","lat":-36.397288,"lng":141.747394,"name":"Kiata","network":"NEM","region":"VIC1","totalCapacity":31,"units":[{"active":true,"capacity":31,"capacityFactor":46.1,"code":"KIATAWF1","currentPower":14.3,"lastSeen":"2026-04-08T20:00:00+10:00"}]},{"active":true,"capacityFactor":19,"code":"LKBONNY1","currentPower":15.2719,"dataFirstSeen":"2009-07-01T00:05:00+10:00","lat":-37.760504,"lng":140.405541,"name":"Lake Bonney","network":"NEM","region":"SA1","totalCapacity":80.5,"units":[{"active":true,"capacity":80.5,"capacityFactor":19,"code":"LKBONNY1","currentPower":15.2719,"lastSeen":"2026-04-08T20:00:00+10:00"}]},{"active":true,"capacityFactor":18.5,"code":"LKBONNY_2","currentPower":29.4331,"dataFirstSeen":"2007-05-31T17:00:00+10:00","lat":-37.760504,"lng":140.405541,"name":"Lake Bonney 2","network":"NEM","region":"SA1","totalCapacity":159,"units":[{"active":true,"capacity":159,"capacityFactor":18.5,"code":"LKBONNY2","currentPower":29.4331,"lastSeen":"2026-04-08T20:00:00+10:00"}]},{"active":true,"capacityFactor":13,"code":"LKBONNY3","currentPower":5.0798,"dataFirstSeen":"2010-07-02T15:55:00+10:00","lat":-37.760504,"lng":140.405541,"name":"Lake Bonney 3","network":"NEM","region":"SA1","totalCapacity":39,"units":[{"active":true,"capacity":39,"capacityFactor":13,"code":"LKBONNY3","currentPower":5.0798,"lastSeen":"2026-04-08T20:00:00+10:00"}]},{"active":true,"capacityFactor":45.7,"code":"LGAPWF1","currentPower":96.91000000000001,"dataFirstSeen":"2019-05-01T11:55:00+10:00","lat":-32.564612,"lng":137.557203,"name":"Lincoln Gap","network":"NEM","region":"SA1","totalCapacity":212,"units":[{"active":true,"capacity":86,"capacityFactor":79.6,"code":"LGAPWF2","currentPower":68.43,"lastSeen":"2026-04-08T20:00:00+10:00"},{"active":true,"capacity":126,"capacityFactor":22.6,"code":"LGAPWF1","currentPower":28.48,"lastSeen":"2026-04-08T20:00:00+10:00"}]},{"active":true,"capacityFactor":8,"code":"MACARTH","currentPower":33.4,"dataFirstSeen":"2012-09-27T14:20:00+10:00","lat":-38.043483,"lng":142.179081,"name":"Macarthur","network":"NEM","region":"VIC1","totalCapacity":420,"units":[{"active":true,"capacity":420,"capacityFactor":8,"code":"MACARTH1","currentPower":33.4,"lastSeen":"2026-04-08T20:00:00+10:00"}]},{"active":true,"capacityFactor":0.8,"code":"MCINTYR","currentPower":7.1311,"dataFirstSeen":"2024-08-28T14:45:00+10:00","lat":-28.2163,"lng":152.0327,"name":"MacIntyre","network":"NEM","region":"QLD1","totalCapacity":923,"units":[{"active":true,"capacity":923,"capacityFactor":0.8,"code":"MCINTYR1","currentPower":7.1311,"lastSeen":"2026-04-08T20:00:00+10:00"}]},{"active":true,"capacityFactor":36.7,"code":"MOORAWF1","currentPower":114.57,"dataFirstSeen":"2020-11-19T10:55:00+10:00","lat":-37.739433,"lng":144.171985,"name":"Moorabool","network":"NEM","region":"VIC1","totalCapacity":312,"units":[{"active":true,"capacity":312,"capacityFactor":36.7,"code":"MOORAWF1","currentPower":114.57,"lastSeen":"2026-04-08T20:00:00+10:00"}]},{"active":true,"capacityFactor":6,"code":"MRTLSWF","currentPower":9.46,"dataFirstSeen":"2022-10-25T18:45:00+10:00","lat":-38.146832,"lng":142.853134,"name":"Mortlake South","network":"NEM","region":"VIC1","totalCapacity":157.5,"units":[{"active":true,"capacity":157.5,"capacityFactor":6,"code":"MRTLSWF1","currentPower":9.46,"lastSeen":"2026-04-08T20:00:00+10:00"}]},{"active":true,"capacityFactor":7.9,"code":"MLWF","currentPower":1.545,"dataFirstSeen":"2012-11-13T14:50:00+10:00","lat":-37.833186,"lng":142.465288,"name":"Mortons Lane","network":"NEM","region":"VIC1","totalCapacity":19.5,"units":[{"active":true,"capacity":19.5,"capacityFactor":7.9,"code":"MLWF1","currentPower":1.545,"lastSeen":"2026-04-08T20:00:00+10:00"}]},{"active":true,"capacityFactor":36.1,"code":"MEWF","currentPower":65,"dataFirstSeen":"2018-08-20T14:25:00+10:00","lat":-17.133248,"lng":145.380037,"name":"Mt Emerald","network":"NEM","region":"QLD1","totalCapacity":180,"units":[{"active":true,"capacity":180,"capacityFactor":36.1,"code":"MEWF1","currentPower":65,"lastSeen":"2026-04-08T20:00:00+10:00"}]},{"active":true,"capacityFactor":8.9,"code":"MTGELWF","currentPower":12.2303,"dataFirstSeen":"2018-06-21T16:40:00+10:00","lat":-38.258519,"lng":143.802037,"name":"Mt Gellibrand","network":"NEM","region":"VIC1","totalCapacity":138,"units":[{"active":true,"capacity":138,"capacityFactor":8.9,"code":"MTGELWF1","currentPower":12.2303,"lastSeen":"2026-04-08T20:00:00+10:00"}]},{"active":true,"capacityFactor":8.9,"code":"MTMERCER","currentPower":11.7,"dataFirstSeen":"2013-11-25T14:15:00+10:00","lat":-37.831791,"lng":143.888681,"name":"Mt Mercer","network":"NEM","region":"VIC1","totalCapacity":131.2,"units":[{"active":true,"capacity":131.2,"capacityFactor":8.9,"code":"MERCER01","currentPower":11.7,"lastSeen":"2026-04-08T20:00:00+10:00"}]},{"active":true,"capacityFactor":70.6,"code":"MTMILLAR","currentPower":49.4,"dataFirstSeen":"2009-07-01T00:05:00+10:00","lat":-33.62534,"lng":136.703771,"name":"Mt Millar","network":"NEM","region":"SA1","totalCapacity":70,"units":[{"active":true,"capacity":70,"capacityFactor":70.6,"code":"MTMILLAR","currentPower":49.4,"lastSeen":"2026-04-08T20:00:00+10:00"}]},{"active":true,"capacityFactor":20.3,"code":"MUWAWF","currentPower":89.56,"dataFirstSeen":"2019-04-08T19:45:00+10:00","lat":-36.438821,"lng":142.246003,"name":"Murra Warra","network":"NEM","region":"VIC1","totalCapacity":440.8,"units":[{"active":true,"capacity":231.8,"capacityFactor":22.7,"code":"MUWAWF1","currentPower":52.66,"lastSeen":"2026-04-08T20:00:00+10:00"},{"active":true,"capacity":209,"capacityFactor":17.7,"code":"MUWAWF2","currentPower":36.9,"lastSeen":"2026-04-08T20:00:00+10:00"}]},{"active":true,"capacityFactor":2.5,"code":"MUSSELRO","currentPower":4.2,"dataFirstSeen":"2013-03-21T15:05:00+10:00","lat":-40.780012,"lng":148.010283,"name":"Musselroe","network":"NEM","region":"TAS1","totalCapacity":168,"units":[{"active":true,"capacity":168,"capacityFactor":2.5,"code":"MUSSELR1","currentPower":4.2,"lastSeen":"2026-04-08T20:00:00+10:00"}]},{"active":true,"capacityFactor":60.2,"code":"NBHWF","currentPower":79.7,"dataFirstSeen":"2010-08-14T20:50:00+10:00","lat":-33.228116,"lng":138.716888,"name":"North Brown Hill","network":"NEM","region":"SA1","totalCapacity":132.3,"units":[{"active":true,"capacity":132.3,"capacityFactor":60.2,"code":"NBHWF1","currentPower":79.7,"lastSeen":"2026-04-08T20:00:00+10:00"}]},{"active":true,"capacityFactor":17.2,"code":"OAKLAND","currentPower":11.5,"dataFirstSeen":"2011-08-25T12:30:00+10:00","lat":-37.681514,"lng":142.552322,"name":"Oaklands Hill","network":"NEM","region":"VIC1","totalCapacity":67,"units":[{"active":true,"capacity":67,"capacityFactor":17.2,"code":"OAKLAND1","currentPower":11.5,"lastSeen":"2026-04-08T20:00:00+10:00"}]},{"active":true,"capacityFactor":71.4,"code":"PAREPW","currentPower":150.01,"dataFirstSeen":"2022-04-19T18:40:00+10:00","lat":-32.595609,"lng":137.885629,"name":"Port Augusta Energy Park","network":"NEM","region":"SA1","totalCapacity":210,"units":[{"active":true,"capacity":210,"capacityFactor":71.4,"code":"PAREPW1","currentPower":150.01,"lastSeen":"2026-04-08T20:00:00+10:00"}]},{"active":true,"capacityFactor":8.5,"code":"PORTWF","currentPower":12.6,"dataFirstSeen":"2009-07-10T00:05:00+10:00","lat":-38.361417,"lng":141.38456,"name":"Portland","network":"NEM","region":"VIC1","totalCapacity":148,"units":[{"active":true,"capacity":148,"capacityFactor":8.5,"code":"PORTWF","currentPower":12.6,"lastSeen":"2026-04-08T20:00:00+10:00"}]},{"active":true,"capacityFactor":7.6,"code":"RYANCWF","currentPower":16.55,"dataFirstSeen":"2024-07-30T03:25:00+10:00","lat":-38.271156,"lng":142.14003,"name":"Ryan Corner","network":"NEM","region":"VIC1","totalCapacity":218.4,"units":[{"active":true,"capacity":218.4,"capacityFactor":7.6,"code":"RYANCWF1","currentPower":16.55,"lastSeen":"2026-04-08T20:00:00+10:00"}]},{"active":true,"capacityFactor":9.6,"code":"RYEPARK","currentPower":38.041,"dataFirstSeen":"2023-08-18T09:40:00+10:00","lat":-34.63317,"lng":148.95364,"name":"Rye Park","network":"NEM","region":"NSW1","totalCapacity":396,"units":[{"active":true,"capacity":396,"capacityFactor":9.6,"code":"RYEPARK1","currentPower":38.041,"lastSeen":"2026-04-08T20:00:00+10:00"}]},{"active":true,"capacityFactor":15.5,"code":"SALTCRK","currentPower":8.35,"dataFirstSeen":"2018-06-06T16:50:00+10:00","lat":-37.930719,"lng":142.773524,"name":"Salt Creek","network":"NEM","region":"VIC1","totalCapacity":54,"units":[{"active":true,"capacity":54,"capacityFactor":15.5,"code":"SALTCRK1","currentPower":8.35,"lastSeen":"2026-04-08T20:00:00+10:00"}]},{"active":true,"capacityFactor":12.3,"code":"SAPHWF1","currentPower":33.312,"dataFirstSeen":"2018-02-01T19:30:00+10:00","lat":-29.710273,"lng":151.44558,"name":"Sapphire","network":"NEM","region":"NSW1","totalCapacity":270,"units":[{"active":true,"capacity":270,"capacityFactor":12.3,"code":"SAPHWF1","currentPower":33.312,"lastSeen":"2026-04-08T20:00:00+10:00"}]},{"active":false,"capacityFactor":0,"code":"STWF","currentPower":0,"dataFirstSeen":"2018-05-15T09:00:00+10:00","lat":-31.86095,"lng":141.296349,"name":"Silverton","network":"NEM","region":"NSW1","totalCapacity":198.94,"units":[{"active":true,"capacity":198.94,"capacityFactor":0,"code":"STWF1","currentPower":0,"lastSeen":"2026-04-08T17:35:00+10:00"}]},{"active":true,"capacityFactor":87.6,"code":"SNOWTOWN","currentPower":86.7389,"dataFirstSeen":"2008-04-18T16:35:00+10:00","lat":-33.691598,"lng":138.166022,"name":"Snowtown","network":"NEM","region":"SA1","totalCapacity":99,"units":[{"active":true,"capacity":99,"capacityFactor":87.6,"code":"SNOWTWN1","currentPower":86.7389,"lastSeen":"2026-04-08T20:00:00+10:00"}]},{"active":true,"capacityFactor":66.5,"code":"SNOWNTH","currentPower":95.6992,"dataFirstSeen":"2014-02-10T17:30:00+10:00","lat":-33.756479,"lng":138.143043,"name":"Snowtown North","network":"NEM","region":"SA1","totalCapacity":144,"units":[{"active":true,"capacity":144,"capacityFactor":66.5,"code":"SNOWNTH1","currentPower":95.6992,"lastSeen":"2026-04-08T20:00:00+10:00"}]},{"active":true,"capacityFactor":82.5,"code":"SNOWSTH","currentPower":103.8984,"dataFirstSeen":"2013-10-03T09:55:00+10:00","lat":-33.862624,"lng":138.130367,"name":"Snowtown South","network":"NEM","region":"SA1","totalCapacity":126,"units":[{"active":true,"capacity":126,"capacityFactor":82.5,"code":"SNOWSTH1","currentPower":103.8984,"lastSeen":"2026-04-08T20:00:00+10:00"}]},{"active":true,"capacityFactor":46.1,"code":"STARFHILL","currentPower":15.8954,"dataFirstSeen":"2009-07-01T00:05:00+10:00","lat":-35.578983,"lng":138.139653,"name":"Starfish Hill","network":"NEM","region":"SA1","totalCapacity":34.5,"units":[{"active":true,"capacity":34.5,"capacityFactor":46.1,"code":"STARHLWF","currentPower":15.8954,"lastSeen":"2026-04-08T20:00:00+10:00"}]},{"active":true,"capacityFactor":23.3,"code":"STOCKYD","currentPower":123.88,"dataFirstSeen":"2021-07-08T00:05:00+10:00","lat":-37.53568,"lng":143.252548,"name":"Stockyard Hill","network":"NEM","region":"VIC1","totalCapacity":531,"units":[{"active":true,"capacity":531,"capacityFactor":23.3,"code":"STOCKYD1","currentPower":123.88,"lastSeen":"2026-04-08T20:00:00+10:00"}]},{"active":true,"capacityFactor":12.3,"code":"TARALGA","currentPower":13.0977,"dataFirstSeen":"2014-12-22T17:35:00+10:00","lat":-34.431428,"lng":149.865258,"name":"Taralga","network":"NEM","region":"NSW1","totalCapacity":106.8,"units":[{"active":true,"capacity":106.8,"capacityFactor":12.3,"code":"TARALGA1","currentPower":13.0977,"lastSeen":"2026-04-08T20:00:00+10:00"}]},{"active":true,"capacityFactor":49,"code":"BLUFF","currentPower":25.7,"dataFirstSeen":"2011-07-05T15:50:00+10:00","lat":-33.367741,"lng":138.79379,"name":"The Bluff","network":"NEM","region":"SA1","totalCapacity":52.5,"units":[{"active":true,"capacity":52.5,"capacityFactor":49,"code":"BLUFF1","currentPower":25.7,"lastSeen":"2026-04-08T20:00:00+10:00"}]},{"active":true,"capacityFactor":37.7,"code":"WAMBOWF","currentPower":95.114,"dataFirstSeen":"2025-06-21T11:25:00+10:00","lat":-26.603045,"lng":151.246876,"name":"Wambo","network":"NEM","region":"QLD1","totalCapacity":252,"units":[{"active":true,"capacity":252,"capacityFactor":37.7,"code":"WAMBOWF1","currentPower":95.114,"lastSeen":"2026-04-08T20:00:00+10:00"}]},{"active":true,"capacityFactor":18.7,"code":"WATERLWF","currentPower":24.5,"dataFirstSeen":"2010-08-20T00:05:00+10:00","lat":-34.001298,"lng":138.91088,"name":"Waterloo","network":"NEM","region":"SA1","totalCapacity":130.8,"units":[{"active":true,"capacity":130.8,"capacityFactor":18.7,"code":"WATERLWF","currentPower":24.5,"lastSeen":"2026-04-08T20:00:00+10:00"}]},{"active":true,"capacityFactor":42.2,"code":"WPWF","currentPower":38.36,"dataFirstSeen":"2009-07-01T00:05:00+10:00","lat":-35.110379,"lng":137.705789,"name":"Wattle Point","network":"NEM","region":"SA1","totalCapacity":91,"units":[{"active":true,"capacity":91,"capacityFactor":42.2,"code":"WPWF","currentPower":38.36,"lastSeen":"2026-04-08T20:00:00+10:00"}]},{"active":true,"capacityFactor":38.1,"code":"WAUBRAWF","currentPower":73.098,"dataFirstSeen":"2009-07-01T00:05:00+10:00","lat":-37.357446,"lng":143.603659,"name":"Waubra","network":"NEM","region":"VIC1","totalCapacity":192,"units":[{"active":true,"capacity":192,"capacityFactor":38.1,"code":"WAUBRAWF","currentPower":73.098,"lastSeen":"2026-04-08T20:00:00+10:00"}]},{"active":true,"capacityFactor":17.4,"code":"WRWF1","currentPower":30.537,"dataFirstSeen":"2017-07-08T09:55:00+10:00","lat":-29.7718,"lng":151.5755,"name":"White Rock Wind Farm","network":"NEM","region":"NSW1","totalCapacity":175,"units":[{"active":true,"capacity":175,"capacityFactor":17.4,"code":"WRWF1","currentPower":30.537,"lastSeen":"2026-04-08T20:00:00+10:00"}]},{"active":true,"capacityFactor":48.9,"code":"WGWF","currentPower":58.2,"dataFirstSeen":"2018-08-29T14:40:00+10:00","lat":-33.413128,"lng":138.845663,"name":"Willogoleche","network":"NEM","region":"SA1","totalCapacity":119,"units":[{"active":true,"capacity":119,"capacityFactor":48.9,"code":"WGWF1","currentPower":58.2,"lastSeen":"2026-04-08T20:00:00+10:00"}]},{"active":true,"capacityFactor":37.3,"code":"WOODLWN","currentPower":18.0135,"dataFirstSeen":"2011-06-01T10:15:00+10:00","lat":-35.081675,"lng":149.570511,"name":"Woodlawn","network":"NEM","region":"NSW1","totalCapacity":48.3,"units":[{"active":true,"capacity":48.3,"capacityFactor":37.3,"code":"WOODLWN1","currentPower":18.0135,"lastSeen":"2026-04-08T20:00:00+10:00"}]},{"active":true,"capacityFactor":2.9,"code":"WOOLNTH1","currentPower":4.07,"dataFirstSeen":"2009-07-01T00:05:00+10:00","lat":-40.786606,"lng":144.738536,"name":"Woolnorth","network":"NEM","region":"TAS1","totalCapacity":140,"units":[{"active":true,"capacity":140,"capacityFactor":2.9,"code":"WOOLNTH1","currentPower":4.07,"lastSeen":"2026-04-08T20:00:00+10:00"}]},{"active":true,"capacityFactor":11.5,"code":"YSWF","currentPower":3.3,"dataFirstSeen":"2017-12-19T22:15:00+10:00","lat":-37.716474,"lng":144.241947,"name":"Yaloak South","network":"NEM","region":"VIC1","totalCapacity":28.7,"units":[{"active":true,"capacity":28.7,"capacityFactor":11.5,"code":"YSWF1","currentPower":3.3,"lastSeen":"2026-04-08T20:00:00+10:00"}]},{"active":true,"capacityFactor":10.3,"code":"YAMBUK","currentPower":3.1,"dataFirstSeen":"2009-07-01T00:05:00+10:00","lat":-38.305278,"lng":142.018439,"name":"Yambuk","network":"NEM","region":"VIC1","totalCapacity":30,"units":[{"active":true,"capacity":30,"capacityFactor":10.3,"code":"YAMBUKWF","currentPower":3.1,"lastSeen":"2026-04-08T20:00:00+10:00"}]},{"active":true,"capacityFactor":55.5,"code":"YENDONWF","currentPower":80.2,"dataFirstSeen":"2019-06-19T00:05:00+10:00","lat":-37.630407,"lng":144.023136,"name":"Yendon","network":"NEM","region":"VIC1","totalCapacity":144.4,"units":[{"active":true,"capacity":144.4,"capacityFactor":55.5,"code":"YENDWF1","currentPower":80.2,"lastSeen":"2026-04-08T20:00:00+10:00"}]},{"active":false,"capacityFactor":0,"code":"ALBANY","currentPower":0,"dataFirstSeen":"2013-12-18T08:00:00+10:00","lat":-35.065835,"lng":117.797506,"name":"Albany","network":"WEM","region":"WEM","totalCapacity":21.6,"units":[{"active":false,"capacity":21.6,"capacityFactor":0,"code":"ALBANY_WF1","currentPower":0,"lastSeen":"2026-04-08T07:55:00+10:00"}]},{"active":false,"capacityFactor":0,"code":"BADGINGARRA","currentPower":0,"dataFirstSeen":"2019-01-14T14:00:00+08:00","lat":-30.439924,"lng":115.324045,"name":"Badgingarra","network":"WEM","region":"WEM","totalCapacity":130,"units":[{"active":false,"capacity":130,"capacityFactor":0,"code":"BADGINGARRA_WF1","currentPower":0,"lastSeen":"2026-04-08T07:55:00+08:00"}]},{"active":false,"capacityFactor":0,"code":"BLAIRFOX_BEROSRD_WF","currentPower":0,"dataFirstSeen":"2019-07-29T08:00:00+08:00","lat":-29.957885,"lng":115.362947,"name":"Beros Road","network":"WEM","region":"WEM","totalCapacity":9.5,"units":[{"active":false,"capacity":9.5,"capacityFactor":0,"code":"BLAIRFOX_BEROSRD_WF1","currentPower":0,"lastSeen":"2026-04-08T07:55:00+08:00"}]},{"active":false,"capacityFactor":0,"code":"BREMER_BAY","currentPower":0,"dataFirstSeen":"2013-12-18T08:00:00+08:00","lat":-34.399033,"lng":119.389377,"name":"Bremer Bay","network":"WEM","region":"WEM","totalCapacity":0.6,"units":[{"active":false,"capacity":0.6,"capacityFactor":0,"code":"BREMER_BAY_WF1","currentPower":0,"lastSeen":"2026-04-08T07:55:00+08:00"}]},{"active":false,"capacityFactor":0,"code":"INVESTEC_COLLGAR","currentPower":0,"dataFirstSeen":"2013-12-17T08:00:00+08:00","lat":-31.542533,"lng":118.456525,"name":"Collgar","network":"WEM","region":"WEM","totalCapacity":222,"units":[{"active":false,"capacity":222,"capacityFactor":0,"code":"INVESTEC_COLLGAR_WF1","currentPower":0,"lastSeen":"2026-04-08T04:05:00+08:00"}]},{"active":false,"capacityFactor":0,"code":"DCWL_DENMARK","currentPower":0,"dataFirstSeen":"2013-12-17T08:00:00+08:00","lat":-35.036971,"lng":117.319012,"name":"Denmark","network":"WEM","region":"WEM","totalCapacity":1.44,"units":[{"active":false,"capacity":1.44,"capacityFactor":0,"code":"DCWL_DENMARK_WF1","currentPower":0,"lastSeen":"2026-04-08T07:55:00+08:00"}]},{"active":false,"capacityFactor":0,"code":"EDWFMAN","currentPower":0,"dataFirstSeen":"2013-12-17T09:00:00+08:00","lat":-30.475647,"lng":115.379052,"name":"Emu Downs","network":"WEM","region":"WEM","totalCapacity":79.2,"units":[{"active":false,"capacity":79.2,"capacityFactor":0,"code":"EDWFMAN_WF1","currentPower":0,"lastSeen":"2026-04-08T07:55:00+08:00"}]},{"active":false,"capacityFactor":0,"code":"FLATROCKS","currentPower":0,"dataFirstSeen":"2023-11-26T12:05:00+08:00","lat":-33.992789,"lng":117.354335,"name":"Flat Rocks","network":"WEM","region":"WEM","totalCapacity":75.6,"units":[{"active":false,"capacity":75.6,"capacityFactor":0,"code":"FLATROCKS_WF1","currentPower":0,"lastSeen":"2026-04-08T07:55:00+08:00"}]},{"active":false,"capacityFactor":0,"code":"GRASMERE","currentPower":0,"dataFirstSeen":"2013-12-18T08:00:00+08:00","lat":-35.065835,"lng":117.797506,"name":"Grasmere","network":"WEM","region":"WEM","totalCapacity":13.8,"units":[{"active":false,"capacity":13.8,"capacityFactor":0,"code":"GRASMERE_WF1","currentPower":0,"lastSeen":"2026-04-08T07:55:00+08:00"}]},{"active":false,"capacityFactor":0,"code":"KALBARRI","currentPower":0,"dataFirstSeen":"2013-12-18T08:00:00+08:00","lat":-27.898303,"lng":114.192354,"name":"Kalbarri","network":"WEM","region":"WEM","totalCapacity":1.6,"units":[{"active":false,"capacity":1.6,"capacityFactor":0,"code":"KALBARRI_WF1","currentPower":0,"lastSeen":"2026-04-08T07:55:00+08:00"}]},{"active":false,"capacityFactor":0,"code":"BLAIRFOX_KARAKIN","currentPower":0,"dataFirstSeen":"2013-12-17T09:00:00+08:00","lat":-30.942242,"lng":115.366613,"name":"Karakin","network":"WEM","region":"WEM","totalCapacity":5,"units":[{"active":false,"capacity":5,"capacityFactor":0,"code":"BLAIRFOX_KARAKIN_WF1","currentPower":0,"lastSeen":"2026-04-08T06:00:00+08:00"}]},{"active":false,"capacityFactor":0,"code":"SKYFRM_MTBARKER","currentPower":0,"dataFirstSeen":"2013-12-17T08:00:00+08:00","lat":-34.601163,"lng":117.643904,"name":"Mount Barker","network":"WEM","region":"WEM","totalCapacity":2.43,"units":[{"active":false,"capacity":2.43,"capacityFactor":0,"code":"SKYFRM_MTBARKER_WF1","currentPower":0,"lastSeen":"2026-04-08T07:55:00+08:00"}]},{"active":false,"capacityFactor":0,"code":"MWF_MUMBIDA","currentPower":0,"dataFirstSeen":"2013-12-17T08:00:00+08:00","lat":-29.011063,"lng":114.966228,"name":"Mumbida","network":"WEM","region":"WEM","totalCapacity":55,"units":[{"active":false,"capacity":55,"capacityFactor":0,"code":"MWF_MUMBIDA_WF1","currentPower":0,"lastSeen":"2026-04-08T07:55:00+08:00"}]},{"active":false,"capacityFactor":0,"code":"ALINTA_WWF","currentPower":0,"dataFirstSeen":"2013-12-17T08:00:00+08:00","lat":-28.902492,"lng":114.892717,"name":"Walkaway","network":"WEM","region":"WEM","totalCapacity":89.1,"units":[{"active":false,"capacity":89.1,"capacityFactor":0,"code":"ALINTA_WWF","currentPower":0,"lastSeen":"2026-04-08T07:55:00+08:00"}]},{"active":false,"capacityFactor":0,"code":"WARRADARGE","currentPower":0,"dataFirstSeen":"2020-08-05T11:00:00+08:00","lat":-29.942809,"lng":115.470459,"name":"Warradarge","network":"WEM","region":"WEM","totalCapacity":180,"units":[{"active":false,"capacity":180,"capacityFactor":0,"code":"WARRADARGE_WF1","currentPower":0,"lastSeen":"2026-04-08T07:55:00+08:00"}]},{"active":false,"capacityFactor":0,"code":"BLAIRFOX_WESTHILLS","currentPower":0,"dataFirstSeen":"2013-12-18T12:00:00+08:00","lat":-30.858103,"lng":115.463261,"name":"West Hills","network":"WEM","region":"WEM","totalCapacity":5,"units":[{"active":false,"capacity":5,"capacityFactor":0,"code":"BLAIRFOX_WESTHILLS_WF3","currentPower":0,"lastSeen":"2026-04-08T05:00:00+08:00"}]},{"active":false,"capacityFactor":0,"code":"YANDIN","currentPower":0,"dataFirstSeen":"2020-07-13T07:00:00+08:00","lat":-30.680971,"lng":115.694249,"name":"Yandin","network":"WEM","region":"WEM","totalCapacity":214,"units":[{"active":false,"capacity":214,"capacityFactor":0,"code":"YANDIN_WF1","currentPower":0,"lastSeen":"2026-04-08T07:55:00+08:00"}]}],"lastUpdated":"2026-04-08T10:13:25.353Z","totalCapacity":15531.56,"totalPower":3502.0662999999995}