{
	"aggregateCapacityFactor": 6.7,
	"facilities": [
		{
			"active": true,
			"capacityFactor": 7.9,
			"code": "ARWF",
			"currentPower": 19,
			"lat": -37.263393,
			"lng": 143.082116,
			"name": "Ararat",
			"network": "NEM",
			"region": "VIC1",
			"totalCapacity": 241.59,
			"units": [
				{
					"active": true,
					"capacity": 241.59,
					"capacityFactor": 7.9,
					"code": "ARWF1",
					"currentPower": 19,
					"lastSeen": "2026-03-18T01:40:00+10:00"
				}
			]
		},
		{
			"active": true,
			"capacityFactor": 6.3,
			"code": "BHWF",
			"currentPower": 6.754,
			"lat": -38.758189,
			"lng": 145.956062,
			"name": "Bald Hills",
			"network": "NEM",
			"region": "VIC1",
			"totalCapacity": 106.6,
			"units": [
				{
					"active": true,
					"capacity": 106.6,
					"capacityFactor": 6.3,
					"code": "BALDHWF1",
					"currentPower": 6.754,
					"lastSeen": "2026-03-18T12:00:00+10:00"
				}
			]
		},
		{
			"active": false,
			"capacityFactor": 0,
			"code": "BANGOWF",
			"currentPower": 0,
			"lat": -34.767208,
			"lng": 148.921499,
			"name": "Bango",
			"network": "NEM",
			"region": "NSW1",
			"totalCapacity": 243.8,
			"units": [
				{
					"active": true,
					"capacity": 84.8,
					"capacityFactor": 0,
					"code": "BANGOWF2",
					"currentPower": 0,
					"lastSeen": "2026-03-18T12:00:00+10:00"
				},
				{
					"active": true,
					"capacity": 159,
					"capacityFactor": 0,
					"code": "BANGOWF1",
					"currentPower": 0,
					"lastSeen": "2026-03-18T12:00:00+10:00"
				}
			]
		},
		{
			"active": true,
			"capacityFactor": 3.5,
			"code": "BRYB1WF1",
			"currentPower": 10.0039,
			"lat": -37.980741,
			"lng": 143.472217,
			"name": "Berrybank",
			"network": "NEM",
			"region": "VIC1",
			"totalCapacity": 289.6,
			"units": [
				{
					"active": true,
					"capacity": 109,
					"capacityFactor": 2.2,
					"code": "BRYB2WF2",
					"currentPower": 2.3774,
					"lastSeen": "2026-03-18T12:00:00+10:00"
				},
				{
					"active": true,
					"capacity": 180.6,
					"capacityFactor": 4.2,
					"code": "BRYB1WF1",
					"currentPower": 7.6265,
					"lastSeen": "2026-03-18T12:00:00+10:00"
				}
			]
		},
		{
			"active": false,
			"capacityFactor": 0,
			"code": "BIALAWF",
			"currentPower": 0,
			"lat": -34.587836,
			"lng": 149.369848,
			"name": "Biala",
			"network": "NEM",
			"region": "NSW1",
			"totalCapacity": 110,
			"units": [
				{
					"active": true,
					"capacity": 110,
					"capacityFactor": 0,
					"code": "GULLRWF2",
					"currentPower": 0,
					"lastSeen": "2026-03-18T12:00:00+10:00"
				}
			]
		},
		{
			"active": true,
			"capacityFactor": 28.4,
			"code": "BOCOROCK",
			"currentPower": 32.14,
			"lat": -36.574527,
			"lng": 149.124863,
			"name": "Boco Rock",
			"network": "NEM",
			"region": "NSW1",
			"totalCapacity": 113.18,
			"units": [
				{
					"active": true,
					"capacity": 113.18,
					"capacityFactor": 28.4,
					"code": "BOCORWF1",
					"currentPower": 32.14,
					"lastSeen": "2026-03-18T12:00:00+10:00"
				}
			]
		},
		{
			"active": true,
			"capacityFactor": 1.5,
			"code": "BODWF",
			"currentPower": 1.6993,
			"lat": -32.407128,
			"lng": 149.04133,
			"name": "Bodangora",
			"network": "NEM",
			"region": "NSW1",
			"totalCapacity": 113.19,
			"units": [
				{
					"active": true,
					"capacity": 113.19,
					"capacityFactor": 1.5,
					"code": "BODWF1",
					"currentPower": 1.6993,
					"lastSeen": "2026-03-18T12:00:00+10:00"
				}
			]
		},
		{
			"active": true,
			"capacityFactor": 7.9,
			"code": "BULGANA",
			"currentPower": 16.07,
			"lat": -37.039507,
			"lng": 142.982799,
			"name": "Bulgana Green Power Hub",
			"network": "NEM",
			"region": "VIC1",
			"totalCapacity": 204,
			"units": [
				{
					"active": true,
					"capacity": 204,
					"capacityFactor": 7.9,
					"code": "BULGANA1",
					"currentPower": 16.07,
					"lastSeen": "2026-03-18T08:30:00+10:00"
				}
			]
		},
		{
			"active": true,
			"capacityFactor": 15.2,
			"code": "CANUNDA1",
			"currentPower": 7.0082,
			"lat": -37.698303,
			"lng": 140.383633,
			"name": "Canunda",
			"network": "NEM",
			"region": "SA1",
			"totalCapacity": 46,
			"units": [
				{
					"active": true,
					"capacity": 46,
					"capacityFactor": 15.2,
					"code": "CNUNDAWF",
					"currentPower": 7.0082,
					"lastSeen": "2026-03-18T12:00:00+10:00"
				}
			]
		},
		{
			"active": false,
			"capacityFactor": 0,
			"code": "CAPTL_WF",
			"currentPower": 0,
			"lat": -35.123534,
			"lng": 149.500249,
			"name": "Capital",
			"network": "NEM",
			"region": "NSW1",
			"totalCapacity": 140,
			"units": [
				{
					"active": true,
					"capacity": 140,
					"capacityFactor": 0,
					"code": "CAPTL_WF",
					"currentPower": 0,
					"lastSeen": "2026-03-18T12:00:00+10:00"
				}
			]
		},
		{
			"active": true,
			"capacityFactor": 24.1,
			"code": "CATHROCK",
			"currentPower": 15.9,
			"lat": -34.848741,
			"lng": 135.592649,
			"name": "Cathedral Rocks",
			"network": "NEM",
			"region": "SA1",
			"totalCapacity": 66,
			"units": [
				{
					"active": true,
					"capacity": 66,
					"capacityFactor": 24.1,
					"code": "CATHROCK",
					"currentPower": 15.9,
					"lastSeen": "2026-03-18T12:00:00+10:00"
				}
			]
		},
		{
			"active": false,
			"capacityFactor": 0,
			"code": "CTHLWF",
			"currentPower": 0,
			"lat": -42.154845,
			"lng": 146.694693,
			"name": "Cattle Hill",
			"network": "NEM",
			"region": "TAS1",
			"totalCapacity": 148,
			"units": [
				{
					"active": true,
					"capacity": 148,
					"capacityFactor": 0,
					"code": "CTHLWF1",
					"currentPower": 0,
					"lastSeen": "2026-03-18T08:40:00+10:00"
				}
			]
		},
		{
			"active": true,
			"capacityFactor": 3.2,
			"code": "CHALLWF",
			"currentPower": 1.7,
			"lat": -37.395466,
			"lng": 143.10459,
			"name": "Challicum Hills",
			"network": "NEM",
			"region": "VIC1",
			"totalCapacity": 52.5,
			"units": [
				{
					"active": true,
					"capacity": 52.5,
					"capacityFactor": 3.2,
					"code": "CHALLHWF",
					"currentPower": 1.7,
					"lastSeen": "2026-03-18T08:20:00+10:00"
				}
			]
		},
		{
			"active": true,
			"capacityFactor": 20.5,
			"code": "CHYTWF",
			"currentPower": 11.82,
			"lat": -37.1018,
			"lng": 145.2656,
			"name": "Cherry Tree",
			"network": "NEM",
			"region": "VIC1",
			"totalCapacity": 57.6,
			"units": [
				{
					"active": true,
					"capacity": 57.6,
					"capacityFactor": 20.5,
					"code": "CHYTWF1",
					"currentPower": 11.82,
					"lastSeen": "2026-03-18T09:20:00+10:00"
				}
			]
		},
		{
			"active": true,
			"capacityFactor": 22.4,
			"code": "CLRKCWF",
			"currentPower": 100.5271,
			"lat": -22.850446,
			"lng": 149.453252,
			"name": "Clarke Creek",
			"network": "NEM",
			"region": "QLD1",
			"totalCapacity": 449,
			"units": [
				{
					"active": true,
					"capacity": 103.5,
					"capacityFactor": 20.6,
					"code": "CLRKCWF2",
					"currentPower": 21.3596,
					"lastSeen": "2026-03-18T12:00:00+10:00"
				},
				{
					"active": true,
					"capacity": 345.5,
					"capacityFactor": 22.9,
					"code": "CLRKCWF1",
					"currentPower": 79.1675,
					"lastSeen": "2026-03-18T12:00:00+10:00"
				}
			]
		},
		{
			"active": true,
			"capacityFactor": 3.8,
			"code": "CLEMGPWF",
			"currentPower": 2.161,
			"lat": -33.489773,
			"lng": 138.111695,
			"name": "Clements Gap",
			"network": "NEM",
			"region": "SA1",
			"totalCapacity": 57,
			"units": [
				{
					"active": true,
					"capacity": 57,
					"capacityFactor": 3.8,
					"code": "CLEMGPWF",
					"currentPower": 2.161,
					"lastSeen": "2026-03-18T12:00:00+10:00"
				}
			]
		},
		{
			"active": false,
			"capacityFactor": 0,
			"code": "COLWF01",
			"currentPower": 0,
			"lat": -34.823879,
			"lng": 149.396795,
			"name": "Collector",
			"network": "NEM",
			"region": "NSW1",
			"totalCapacity": 226,
			"units": [
				{
					"active": true,
					"capacity": 226,
					"capacityFactor": 0,
					"code": "COLWF01",
					"currentPower": 0,
					"lastSeen": "2026-03-18T12:00:00+10:00"
				}
			]
		},
		{
			"active": true,
			"capacityFactor": 4.7,
			"code": "COOPGWF",
			"currentPower": 21.19,
			"lat": -26.717004,
			"lng": 151.449177,
			"name": "Coopers Gap",
			"network": "NEM",
			"region": "QLD1",
			"totalCapacity": 452,
			"units": [
				{
					"active": true,
					"capacity": 452,
					"capacityFactor": 4.7,
					"code": "COOPGWF1",
					"currentPower": 21.19,
					"lastSeen": "2026-03-18T12:00:00+10:00"
				}
			]
		},
		{
			"active": false,
			"capacityFactor": 0,
			"code": "CROOKWF2",
			"currentPower": 0,
			"lat": -34.547676,
			"lng": 149.589254,
			"name": "Crookwell 2",
			"network": "NEM",
			"region": "NSW1",
			"totalCapacity": 96.04,
			"units": [
				{
					"active": true,
					"capacity": 96.04,
					"capacityFactor": 0,
					"code": "CROOKWF2",
					"currentPower": 0,
					"lastSeen": "2026-03-18T09:25:00+10:00"
				}
			]
		},
		{
			"active": false,
			"capacityFactor": 0,
			"code": "CROOKWF3",
			"currentPower": 0,
			"lat": -34.484645,
			"lng": 149.54447,
			"name": "Crookwell 3",
			"network": "NEM",
			"region": "NSW1",
			"totalCapacity": 57,
			"units": [
				{
					"active": true,
					"capacity": 57,
					"capacityFactor": 0,
					"code": "CROOKWF3",
					"currentPower": 0,
					"lastSeen": "2026-03-17T11:35:00+10:00"
				}
			]
		},
		{
			"active": true,
			"capacityFactor": 13.6,
			"code": "CROWLWF",
			"currentPower": 10.857,
			"lat": -36.97615,
			"lng": 143.097998,
			"name": "Crowlands",
			"network": "NEM",
			"region": "VIC1",
			"totalCapacity": 79.95,
			"units": [
				{
					"active": true,
					"capacity": 79.95,
					"capacityFactor": 13.6,
					"code": "CROWLWF1",
					"currentPower": 10.857,
					"lastSeen": "2026-03-18T07:45:00+10:00"
				}
			]
		},
		{
			"active": false,
			"capacityFactor": 0,
			"code": "CRURWF1",
			"currentPower": 0,
			"lat": -32.864748,
			"lng": 149.81297,
			"name": "Crudine Ridge",
			"network": "NEM",
			"region": "NSW1",
			"totalCapacity": 141,
			"units": [
				{
					"active": true,
					"capacity": 141,
					"capacityFactor": 0,
					"code": "CRURWF1",
					"currentPower": 0,
					"lastSeen": "2026-03-18T12:00:00+10:00"
				}
			]
		},
		{
			"active": false,
			"capacityFactor": 0,
			"code": "CULLERIN",
			"currentPower": 0,
			"lat": -34.750995,
			"lng": 149.381027,
			"name": "Cullerin Range",
			"network": "NEM",
			"region": "NSW1",
			"totalCapacity": 30,
			"units": [
				{
					"active": false,
					"capacity": 30,
					"capacityFactor": 0,
					"code": "CULLRGWF",
					"currentPower": 0,
					"lastSeen": "2026-03-18T12:00:00+10:00"
				}
			]
		},
		{
			"active": false,
			"capacityFactor": 0,
			"code": "DIAPURWF",
			"currentPower": 0,
			"lat": -36.339953,
			"lng": 141.447361,
			"name": "Diapur 2",
			"network": "NEM",
			"region": "VIC1",
			"totalCapacity": 8,
			"units": [
				{
					"active": true,
					"capacity": 8,
					"capacityFactor": 0,
					"code": "DIAPURWF1",
					"currentPower": 0,
					"lastSeen": "2026-03-18T12:00:00+10:00"
				}
			]
		},
		{
			"active": true,
			"capacityFactor": 6.3,
			"code": "DULAWF",
			"currentPower": 11.2998,
			"lat": -26.637485,
			"lng": 149.870186,
			"name": "Dulacca",
			"network": "NEM",
			"region": "QLD1",
			"totalCapacity": 180,
			"units": [
				{
					"active": true,
					"capacity": 180,
					"capacityFactor": 6.3,
					"code": "DULAWF1",
					"currentPower": 11.2998,
					"lastSeen": "2026-03-18T12:00:00+10:00"
				}
			]
		},
		{
			"active": true,
			"capacityFactor": 2.9,
			"code": "DUNDWF",
			"currentPower": 9.55,
			"lat": -37.863894,
			"lng": 142.943454,
			"name": "Dundonnell",
			"network": "NEM",
			"region": "VIC1",
			"totalCapacity": 335,
			"units": [
				{
					"active": true,
					"capacity": 168,
					"capacityFactor": 2.6,
					"code": "DUNDWF1",
					"currentPower": 4.42,
					"lastSeen": "2026-03-18T12:00:00+10:00"
				},
				{
					"active": true,
					"capacity": 121,
					"capacityFactor": 2.7,
					"code": "DUNDWF3",
					"currentPower": 3.32,
					"lastSeen": "2026-03-18T12:00:00+10:00"
				},
				{
					"active": true,
					"capacity": 46,
					"capacityFactor": 3.9,
					"code": "DUNDWF2",
					"currentPower": 1.81,
					"lastSeen": "2026-03-18T12:00:00+10:00"
				}
			]
		},
		{
			"active": true,
			"capacityFactor": 2.3,
			"code": "ELAINEWF",
			"currentPower": 1.93,
			"lat": -37.6352,
			"lng": 144.0237,
			"name": "Elaine",
			"network": "NEM",
			"region": "VIC1",
			"totalCapacity": 83.6,
			"units": [
				{
					"active": true,
					"capacity": 83.6,
					"capacityFactor": 2.3,
					"code": "ELAINWF1",
					"currentPower": 1.93,
					"lastSeen": "2026-03-18T12:00:00+10:00"
				}
			]
		},
		{
			"active": true,
			"capacityFactor": 0.9,
			"code": "FLYCRKWF",
			"currentPower": 1.24,
			"lat": -33.521475,
			"lng": 149.045234,
			"name": "Flyers Creek",
			"network": "NEM",
			"region": "NSW1",
			"totalCapacity": 145,
			"units": [
				{
					"active": true,
					"capacity": 145,
					"capacityFactor": 0.9,
					"code": "FLYCRKWF",
					"currentPower": 1.24,
					"lastSeen": "2026-03-18T12:00:00+10:00"
				}
			]
		},
		{
			"active": true,
			"capacityFactor": 2.3,
			"code": "GPWFEST",
			"currentPower": 17.56,
			"lat": -37.9729,
			"lng": 143.783,
			"name": "Golden Plains East",
			"network": "NEM",
			"region": "VIC1",
			"totalCapacity": 756.4,
			"units": [
				{
					"active": true,
					"capacity": 248,
					"capacityFactor": 1.7,
					"code": "GPWFEST1",
					"currentPower": 4.1,
					"lastSeen": "2026-03-18T12:00:00+10:00"
				},
				{
					"active": true,
					"capacity": 248,
					"capacityFactor": 3.1,
					"code": "GPWFEST3",
					"currentPower": 7.65,
					"lastSeen": "2026-03-18T12:00:00+10:00"
				},
				{
					"active": true,
					"capacity": 260.4,
					"capacityFactor": 2.2,
					"code": "GPWFEST2",
					"currentPower": 5.81,
					"lastSeen": "2026-03-18T12:00:00+10:00"
				}
			]
		},
		{
			"active": true,
			"capacityFactor": 0,
			"code": "GPWFWST",
			"currentPower": 0.02,
			"lat": -37.90844,
			"lng": 143.664887,
			"name": "Golden Plains West",
			"network": "NEM",
			"region": "VIC1",
			"totalCapacity": 266,
			"units": [
				{
					"active": true,
					"capacity": 266,
					"capacityFactor": 0,
					"code": "GPWFWST1",
					"currentPower": 0.02,
					"lastSeen": "2026-03-18T12:00:00+10:00"
				}
			]
		},
		{
			"active": true,
			"capacityFactor": 4.3,
			"code": "GSWF",
			"currentPower": 17.91,
			"lat": -33.682196,
			"lng": 138.936249,
			"name": "Goyder South",
			"network": "NEM",
			"region": "SA1",
			"totalCapacity": 412,
			"units": [
				{
					"active": true,
					"capacity": 209,
					"capacityFactor": 5,
					"code": "GSWF1A",
					"currentPower": 10.36,
					"lastSeen": "2026-03-18T12:00:00+10:00"
				},
				{
					"active": true,
					"capacity": 203,
					"capacityFactor": 3.7,
					"code": "GSWF1B1",
					"currentPower": 7.55,
					"lastSeen": "2026-03-18T12:00:00+10:00"
				}
			]
		},
		{
			"active": true,
			"capacityFactor": 7,
			"code": "GRANWF",
			"currentPower": 7.71,
			"lat": -41.802,
			"lng": 145.056,
			"name": "Granville Harbour",
			"network": "NEM",
			"region": "TAS1",
			"totalCapacity": 110,
			"units": [
				{
					"active": true,
					"capacity": 110,
					"capacityFactor": 7,
					"code": "GRANWF1",
					"currentPower": 7.71,
					"lastSeen": "2026-03-18T12:00:00+10:00"
				}
			]
		},
		{
			"active": false,
			"capacityFactor": 0,
			"code": "GULLRGWF",
			"currentPower": 0,
			"lat": -34.624512,
			"lng": 149.458549,
			"name": "Gullen Range",
			"network": "NEM",
			"region": "NSW1",
			"totalCapacity": 165,
			"units": [
				{
					"active": true,
					"capacity": 165,
					"capacityFactor": 0,
					"code": "GULLRWF1",
					"currentPower": 0,
					"lastSeen": "2026-03-18T12:00:00+10:00"
				}
			]
		},
		{
			"active": false,
			"capacityFactor": 0,
			"code": "GUNNING",
			"currentPower": 0,
			"lat": -34.676361,
			"lng": 149.66443,
			"name": "Gunning",
			"network": "NEM",
			"region": "NSW1",
			"totalCapacity": 46.5,
			"units": [
				{
					"active": true,
					"capacity": 46.5,
					"capacityFactor": 0,
					"code": "GUNNING1",
					"currentPower": 0,
					"lastSeen": "2026-03-18T12:00:00+10:00"
				}
			]
		},
		{
			"active": true,
			"capacityFactor": 10.9,
			"code": "HALLWF",
			"currentPower": 10.36,
			"lat": -33.328434,
			"lng": 138.704669,
			"name": "Hallett 1",
			"network": "NEM",
			"region": "SA1",
			"totalCapacity": 95,
			"units": [
				{
					"active": true,
					"capacity": 95,
					"capacityFactor": 10.9,
					"code": "HALLWF1",
					"currentPower": 10.36,
					"lastSeen": "2026-03-18T12:00:00+10:00"
				}
			]
		},
		{
			"active": true,
			"capacityFactor": 5.5,
			"code": "HALLWF2",
			"currentPower": 3.94,
			"lat": -33.53821,
			"lng": 138.857215,
			"name": "Hallett 2",
			"network": "NEM",
			"region": "SA1",
			"totalCapacity": 71.4,
			"units": [
				{
					"active": true,
					"capacity": 71.4,
					"capacityFactor": 5.5,
					"code": "HALLWF2",
					"currentPower": 3.94,
					"lastSeen": "2026-03-18T12:00:00+10:00"
				}
			]
		},
		{
			"active": true,
			"capacityFactor": 12.8,
			"code": "HD1WF",
			"currentPower": 12.07,
			"lat": -38.148008,
			"lng": 142.360925,
			"name": "Hawkesdale",
			"network": "NEM",
			"region": "VIC1",
			"totalCapacity": 94.6,
			"units": [
				{
					"active": true,
					"capacity": 94.6,
					"capacityFactor": 12.8,
					"code": "HD1WF1",
					"currentPower": 12.07,
					"lastSeen": "2026-03-18T12:00:00+10:00"
				}
			]
		},
		{
			"active": true,
			"capacityFactor": 10.1,
			"code": "HORNSDAL",
			"currentPower": 10.3,
			"lat": -33.05982,
			"lng": 138.537673,
			"name": "Hornsdale",
			"network": "NEM",
			"region": "SA1",
			"totalCapacity": 102.4,
			"units": [
				{
					"active": true,
					"capacity": 102.4,
					"capacityFactor": 10.1,
					"code": "HDWF1",
					"currentPower": 10.3,
					"lastSeen": "2026-03-18T12:00:00+10:00"
				}
			]
		},
		{
			"active": true,
			"capacityFactor": 6.3,
			"code": "HORNSDAL2",
			"currentPower": 6.4,
			"lat": -33.05982,
			"lng": 138.537673,
			"name": "Hornsdale 2",
			"network": "NEM",
			"region": "SA1",
			"totalCapacity": 102.4,
			"units": [
				{
					"active": true,
					"capacity": 102.4,
					"capacityFactor": 6.3,
					"code": "HDWF2",
					"currentPower": 6.4,
					"lastSeen": "2026-03-18T12:00:00+10:00"
				}
			]
		},
		{
			"active": true,
			"capacityFactor": 8.4,
			"code": "HORNSDAL3",
			"currentPower": 9.4,
			"lat": -33.05982,
			"lng": 138.537673,
			"name": "Hornsdale 3",
			"network": "NEM",
			"region": "SA1",
			"totalCapacity": 112,
			"units": [
				{
					"active": true,
					"capacity": 112,
					"capacityFactor": 8.4,
					"code": "HDWF3",
					"currentPower": 9.4,
					"lastSeen": "2026-03-18T12:00:00+10:00"
				}
			]
		},
		{
			"active": true,
			"capacityFactor": 42.2,
			"code": "KABANWF",
			"currentPower": 65.868,
			"lat": -17.560606,
			"lng": 145.413125,
			"name": "Kaban",
			"network": "NEM",
			"region": "QLD1",
			"totalCapacity": 156,
			"units": [
				{
					"active": true,
					"capacity": 156,
					"capacityFactor": 42.2,
					"code": "KABANWF1",
					"currentPower": 65.868,
					"lastSeen": "2026-03-18T12:00:00+10:00"
				}
			]
		},
		{
			"active": true,
			"capacityFactor": 13.9,
			"code": "KENNEDY",
			"currentPower": 6,
			"lat": -20.872792,
			"lng": 144.413034,
			"name": "Kennedy Energy Park",
			"network": "NEM",
			"region": "QLD1",
			"totalCapacity": 43.2,
			"units": [
				{
					"active": true,
					"capacity": 43.2,
					"capacityFactor": 13.9,
					"code": "KEPWF1",
					"currentPower": 6,
					"lastSeen": "2026-03-18T12:00:00+10:00"
				}
			]
		},
		{
			"active": false,
			"capacityFactor": 0,
			"code": "KIATAWF",
			"currentPower": 0,
			"lat": -36.397693,
			"lng": 141.746827,
			"name": "Kiata",
			"network": "NEM",
			"region": "VIC1",
			"totalCapacity": 31,
			"units": [
				{
					"active": true,
					"capacity": 31,
					"capacityFactor": 0,
					"code": "KIATAWF1",
					"currentPower": 0,
					"lastSeen": "2026-03-18T12:00:00+10:00"
				}
			]
		},
		{
			"active": true,
			"capacityFactor": 31,
			"code": "LKBONNY1",
			"currentPower": 24.9173,
			"lat": -37.760504,
			"lng": 140.405541,
			"name": "Lake Bonney",
			"network": "NEM",
			"region": "SA1",
			"totalCapacity": 80.5,
			"units": [
				{
					"active": true,
					"capacity": 80.5,
					"capacityFactor": 31,
					"code": "LKBONNY1",
					"currentPower": 24.9173,
					"lastSeen": "2026-03-18T12:00:00+10:00"
				}
			]
		},
		{
			"active": true,
			"capacityFactor": 13.3,
			"code": "LKBONNY_2",
			"currentPower": 21.1216,
			"lat": -37.760504,
			"lng": 140.405541,
			"name": "Lake Bonney 2",
			"network": "NEM",
			"region": "SA1",
			"totalCapacity": 159,
			"units": [
				{
					"active": true,
					"capacity": 159,
					"capacityFactor": 13.3,
					"code": "LKBONNY2",
					"currentPower": 21.1216,
					"lastSeen": "2026-03-18T12:00:00+10:00"
				}
			]
		},
		{
			"active": true,
			"capacityFactor": 9.2,
			"code": "LKBONNY3",
			"currentPower": 3.5726,
			"lat": -37.760504,
			"lng": 140.405541,
			"name": "Lake Bonney 3",
			"network": "NEM",
			"region": "SA1",
			"totalCapacity": 39,
			"units": [
				{
					"active": true,
					"capacity": 39,
					"capacityFactor": 9.2,
					"code": "LKBONNY3",
					"currentPower": 3.5726,
					"lastSeen": "2026-03-18T12:00:00+10:00"
				}
			]
		},
		{
			"active": true,
			"capacityFactor": 6.2,
			"code": "LGAPWF1",
			"currentPower": 13.07,
			"lat": -32.546333,
			"lng": 137.552763,
			"name": "Lincoln Gap",
			"network": "NEM",
			"region": "SA1",
			"totalCapacity": 212,
			"units": [
				{
					"active": true,
					"capacity": 126,
					"capacityFactor": 3.1,
					"code": "LGAPWF1",
					"currentPower": 3.93,
					"lastSeen": "2026-03-18T12:00:00+10:00"
				},
				{
					"active": true,
					"capacity": 86,
					"capacityFactor": 10.6,
					"code": "LGAPWF2",
					"currentPower": 9.14,
					"lastSeen": "2026-03-18T12:00:00+10:00"
				}
			]
		},
		{
			"active": true,
			"capacityFactor": 6.6,
			"code": "MACARTH",
			"currentPower": 27.6,
			"lat": -38.043483,
			"lng": 142.179081,
			"name": "Macarthur",
			"network": "NEM",
			"region": "VIC1",
			"totalCapacity": 420,
			"units": [
				{
					"active": true,
					"capacity": 420,
					"capacityFactor": 6.6,
					"code": "MACARTH1",
					"currentPower": 27.6,
					"lastSeen": "2026-03-18T12:00:00+10:00"
				}
			]
		},
		{
			"active": true,
			"capacityFactor": 0.9,
			"code": "MCINTYR",
			"currentPower": 8.5801,
			"lat": -28.2163,
			"lng": 152.0327,
			"name": "MacIntyre",
			"network": "NEM",
			"region": "QLD1",
			"totalCapacity": 923,
			"units": [
				{
					"active": true,
					"capacity": 923,
					"capacityFactor": 0.9,
					"code": "MCINTYR1",
					"currentPower": 8.5801,
					"lastSeen": "2026-03-18T12:00:00+10:00"
				}
			]
		},
		{
			"active": true,
			"capacityFactor": 1.3,
			"code": "MOORAWF1",
			"currentPower": 4.03,
			"lat": -37.739433,
			"lng": 144.171985,
			"name": "Moorabool",
			"network": "NEM",
			"region": "VIC1",
			"totalCapacity": 312,
			"units": [
				{
					"active": true,
					"capacity": 312,
					"capacityFactor": 1.3,
					"code": "MOORAWF1",
					"currentPower": 4.03,
					"lastSeen": "2026-03-18T05:20:00+10:00"
				}
			]
		},
		{
			"active": true,
			"capacityFactor": 0.3,
			"code": "MRTLSWF",
			"currentPower": 0.53,
			"lat": -38.147965,
			"lng": 142.882246,
			"name": "Mortlake South",
			"network": "NEM",
			"region": "VIC1",
			"totalCapacity": 157.5,
			"units": [
				{
					"active": true,
					"capacity": 157.5,
					"capacityFactor": 0.3,
					"code": "MRTLSWF1",
					"currentPower": 0.53,
					"lastSeen": "2026-03-18T12:00:00+10:00"
				}
			]
		},
		{
			"active": true,
			"capacityFactor": 5.8,
			"code": "MLWF",
			"currentPower": 1.14,
			"lat": -37.833186,
			"lng": 142.465288,
			"name": "Mortons Lane",
			"network": "NEM",
			"region": "VIC1",
			"totalCapacity": 19.5,
			"units": [
				{
					"active": true,
					"capacity": 19.5,
					"capacityFactor": 5.8,
					"code": "MLWF1",
					"currentPower": 1.14,
					"lastSeen": "2026-03-18T12:00:00+10:00"
				}
			]
		},
		{
			"active": true,
			"capacityFactor": 41.2,
			"code": "MEWF",
			"currentPower": 74.2359,
			"lat": -17.133248,
			"lng": 145.380037,
			"name": "Mt Emerald",
			"network": "NEM",
			"region": "QLD1",
			"totalCapacity": 180,
			"units": [
				{
					"active": true,
					"capacity": 180,
					"capacityFactor": 41.2,
					"code": "MEWF1",
					"currentPower": 74.2359,
					"lastSeen": "2026-03-18T12:00:00+10:00"
				}
			]
		},
		{
			"active": false,
			"capacityFactor": 0,
			"code": "MTGELWF",
			"currentPower": 0,
			"lat": -38.257657,
			"lng": 143.798651,
			"name": "Mt Gellibrand",
			"network": "NEM",
			"region": "VIC1",
			"totalCapacity": 138,
			"units": [
				{
					"active": true,
					"capacity": 138,
					"capacityFactor": 0,
					"code": "MTGELWF1",
					"currentPower": 0,
					"lastSeen": "2026-03-18T12:00:00+10:00"
				}
			]
		},
		{
			"active": true,
			"capacityFactor": 1.7,
			"code": "MTMERCER",
			"currentPower": 2.2,
			"lat": -37.847593,
			"lng": 143.870183,
			"name": "Mt Mercer",
			"network": "NEM",
			"region": "VIC1",
			"totalCapacity": 131.2,
			"units": [
				{
					"active": true,
					"capacity": 131.2,
					"capacityFactor": 1.7,
					"code": "MERCER01",
					"currentPower": 2.2,
					"lastSeen": "2026-03-18T12:00:00+10:00"
				}
			]
		},
		{
			"active": true,
			"capacityFactor": 10.3,
			"code": "MTMILLAR",
			"currentPower": 7.2,
			"lat": -33.619342,
			"lng": 136.717568,
			"name": "Mt Millar",
			"network": "NEM",
			"region": "SA1",
			"totalCapacity": 70,
			"units": [
				{
					"active": true,
					"capacity": 70,
					"capacityFactor": 10.3,
					"code": "MTMILLAR",
					"currentPower": 7.2,
					"lastSeen": "2026-03-18T12:00:00+10:00"
				}
			]
		},
		{
			"active": true,
			"capacityFactor": 0.6,
			"code": "MUWAWF",
			"currentPower": 2.52,
			"lat": -36.438821,
			"lng": 142.246003,
			"name": "Murra Warra",
			"network": "NEM",
			"region": "VIC1",
			"totalCapacity": 440.8,
			"units": [
				{
					"active": true,
					"capacity": 231.8,
					"capacityFactor": 0.1,
					"code": "MUWAWF1",
					"currentPower": 0.32,
					"lastSeen": "2026-03-18T12:00:00+10:00"
				},
				{
					"active": true,
					"capacity": 209,
					"capacityFactor": 1.1,
					"code": "MUWAWF2",
					"currentPower": 2.2,
					"lastSeen": "2026-03-18T12:00:00+10:00"
				}
			]
		},
		{
			"active": true,
			"capacityFactor": 4.9,
			"code": "MUSSELRO",
			"currentPower": 8.3,
			"lat": -40.777105,
			"lng": 148.006315,
			"name": "Musselroe",
			"network": "NEM",
			"region": "TAS1",
			"totalCapacity": 168,
			"units": [
				{
					"active": true,
					"capacity": 168,
					"capacityFactor": 4.9,
					"code": "MUSSELR1",
					"currentPower": 8.3,
					"lastSeen": "2026-03-18T12:00:00+10:00"
				}
			]
		},
		{
			"active": true,
			"capacityFactor": 9.4,
			"code": "NBHWF",
			"currentPower": 12.4,
			"lat": -33.228116,
			"lng": 138.716888,
			"name": "North Brown Hill",
			"network": "NEM",
			"region": "SA1",
			"totalCapacity": 132.3,
			"units": [
				{
					"active": true,
					"capacity": 132.3,
					"capacityFactor": 9.4,
					"code": "NBHWF1",
					"currentPower": 12.4,
					"lastSeen": "2026-03-18T12:00:00+10:00"
				}
			]
		},
		{
			"active": false,
			"capacityFactor": 0,
			"code": "OAKLAND",
			"currentPower": 0,
			"lat": -37.679481,
			"lng": 142.552995,
			"name": "Oaklands Hill",
			"network": "NEM",
			"region": "VIC1",
			"totalCapacity": 67,
			"units": [
				{
					"active": true,
					"capacity": 67,
					"capacityFactor": 0,
					"code": "OAKLAND1",
					"currentPower": 0,
					"lastSeen": "2026-03-18T09:00:00+10:00"
				}
			]
		},
		{
			"active": true,
			"capacityFactor": 16.6,
			"code": "PAREPW",
			"currentPower": 34.79,
			"lat": -32.595609,
			"lng": 137.885629,
			"name": "Port Augusta Energy Park",
			"network": "NEM",
			"region": "SA1",
			"totalCapacity": 210,
			"units": [
				{
					"active": true,
					"capacity": 210,
					"capacityFactor": 16.6,
					"code": "PAREPW1",
					"currentPower": 34.79,
					"lastSeen": "2026-03-18T12:00:00+10:00"
				}
			]
		},
		{
			"active": true,
			"capacityFactor": 13.7,
			"code": "PORTWF",
			"currentPower": 20.3,
			"lat": -38.361417,
			"lng": 141.38456,
			"name": "Portland",
			"network": "NEM",
			"region": "VIC1",
			"totalCapacity": 148,
			"units": [
				{
					"active": true,
					"capacity": 148,
					"capacityFactor": 13.7,
					"code": "PORTWF",
					"currentPower": 20.3,
					"lastSeen": "2026-03-18T12:00:00+10:00"
				}
			]
		},
		{
			"active": true,
			"capacityFactor": 14.1,
			"code": "RYANCWF",
			"currentPower": 30.74,
			"lat": -38.271156,
			"lng": 142.14003,
			"name": "Ryan Corner",
			"network": "NEM",
			"region": "VIC1",
			"totalCapacity": 218.4,
			"units": [
				{
					"active": true,
					"capacity": 218.4,
					"capacityFactor": 14.1,
					"code": "RYANCWF1",
					"currentPower": 30.74,
					"lastSeen": "2026-03-18T12:00:00+10:00"
				}
			]
		},
		{
			"active": false,
			"capacityFactor": 0,
			"code": "RYEPARK",
			"currentPower": 0,
			"lat": -34.63317,
			"lng": 148.95364,
			"name": "Rye Park",
			"network": "NEM",
			"region": "NSW1",
			"totalCapacity": 396,
			"units": [
				{
					"active": true,
					"capacity": 396,
					"capacityFactor": 0,
					"code": "RYEPARK1",
					"currentPower": 0,
					"lastSeen": "2026-03-18T12:00:00+10:00"
				}
			]
		},
		{
			"active": false,
			"capacityFactor": 0,
			"code": "SALTCRK",
			"currentPower": 0,
			"lat": -37.918698,
			"lng": 142.796027,
			"name": "Salt Creek",
			"network": "NEM",
			"region": "VIC1",
			"totalCapacity": 54,
			"units": [
				{
					"active": true,
					"capacity": 54,
					"capacityFactor": 0,
					"code": "SALTCRK1",
					"currentPower": 0,
					"lastSeen": "2026-03-18T12:00:00+10:00"
				}
			]
		},
		{
			"active": true,
			"capacityFactor": 4.7,
			"code": "SAPHWF1",
			"currentPower": 12.7764,
			"lat": -29.710273,
			"lng": 151.44558,
			"name": "Sapphire",
			"network": "NEM",
			"region": "NSW1",
			"totalCapacity": 270,
			"units": [
				{
					"active": true,
					"capacity": 270,
					"capacityFactor": 4.7,
					"code": "SAPHWF1",
					"currentPower": 12.7764,
					"lastSeen": "2026-03-18T12:00:00+10:00"
				}
			]
		},
		{
			"active": true,
			"capacityFactor": 11.9,
			"code": "STWF",
			"currentPower": 23.7253,
			"lat": -31.86095,
			"lng": 141.296349,
			"name": "Silverton",
			"network": "NEM",
			"region": "NSW1",
			"totalCapacity": 198.94,
			"units": [
				{
					"active": true,
					"capacity": 198.94,
					"capacityFactor": 11.9,
					"code": "STWF1",
					"currentPower": 23.7253,
					"lastSeen": "2026-03-18T12:00:00+10:00"
				}
			]
		},
		{
			"active": true,
			"capacityFactor": 24.2,
			"code": "SNOWTOWN",
			"currentPower": 23.9781,
			"lat": -33.691598,
			"lng": 138.166022,
			"name": "Snowtown",
			"network": "NEM",
			"region": "SA1",
			"totalCapacity": 99,
			"units": [
				{
					"active": true,
					"capacity": 99,
					"capacityFactor": 24.2,
					"code": "SNOWTWN1",
					"currentPower": 23.9781,
					"lastSeen": "2026-03-18T12:00:00+10:00"
				}
			]
		},
		{
			"active": true,
			"capacityFactor": 31.9,
			"code": "SNOWNTH",
			"currentPower": 46,
			"lat": -33.756479,
			"lng": 138.143043,
			"name": "Snowtown North",
			"network": "NEM",
			"region": "SA1",
			"totalCapacity": 144,
			"units": [
				{
					"active": true,
					"capacity": 144,
					"capacityFactor": 31.9,
					"code": "SNOWNTH1",
					"currentPower": 46,
					"lastSeen": "2026-03-18T12:00:00+10:00"
				}
			]
		},
		{
			"active": true,
			"capacityFactor": 26,
			"code": "SNOWSTH",
			"currentPower": 32.7998,
			"lat": -33.862624,
			"lng": 138.130367,
			"name": "Snowtown South",
			"network": "NEM",
			"region": "SA1",
			"totalCapacity": 126,
			"units": [
				{
					"active": true,
					"capacity": 126,
					"capacityFactor": 26,
					"code": "SNOWSTH1",
					"currentPower": 32.7998,
					"lastSeen": "2026-03-18T12:00:00+10:00"
				}
			]
		},
		{
			"active": true,
			"capacityFactor": 14.2,
			"code": "STARFHILL",
			"currentPower": 4.8986,
			"lat": -35.578983,
			"lng": 138.139653,
			"name": "Starfish Hill",
			"network": "NEM",
			"region": "SA1",
			"totalCapacity": 34.5,
			"units": [
				{
					"active": true,
					"capacity": 34.5,
					"capacityFactor": 14.2,
					"code": "STARHLWF",
					"currentPower": 4.8986,
					"lastSeen": "2026-03-18T12:00:00+10:00"
				}
			]
		},
		{
			"active": true,
			"capacityFactor": 6.1,
			"code": "STOCKYD",
			"currentPower": 32.28,
			"lat": -37.53568,
			"lng": 143.252548,
			"name": "Stockyard Hill",
			"network": "NEM",
			"region": "VIC1",
			"totalCapacity": 531,
			"units": [
				{
					"active": true,
					"capacity": 531,
					"capacityFactor": 6.1,
					"code": "STOCKYD1",
					"currentPower": 32.28,
					"lastSeen": "2026-03-18T09:30:00+10:00"
				}
			]
		},
		{
			"active": true,
			"capacityFactor": 4.1,
			"code": "TARALGA",
			"currentPower": 4.3269,
			"lat": -34.425387,
			"lng": 149.859603,
			"name": "Taralga",
			"network": "NEM",
			"region": "NSW1",
			"totalCapacity": 106.8,
			"units": [
				{
					"active": true,
					"capacity": 106.8,
					"capacityFactor": 4.1,
					"code": "TARALGA1",
					"currentPower": 4.3269,
					"lastSeen": "2026-03-18T12:00:00+10:00"
				}
			]
		},
		{
			"active": true,
			"capacityFactor": 0.6,
			"code": "BLUFF",
			"currentPower": 0.3,
			"lat": -33.367741,
			"lng": 138.79379,
			"name": "The Bluff",
			"network": "NEM",
			"region": "SA1",
			"totalCapacity": 52.5,
			"units": [
				{
					"active": true,
					"capacity": 52.5,
					"capacityFactor": 0.6,
					"code": "BLUFF1",
					"currentPower": 0.3,
					"lastSeen": "2026-03-18T12:00:00+10:00"
				}
			]
		},
		{
			"active": true,
			"capacityFactor": 1.4,
			"code": "WAMBOWF",
			"currentPower": 3.573,
			"lat": -26.603045,
			"lng": 151.246876,
			"name": "Wambo",
			"network": "NEM",
			"region": "QLD1",
			"totalCapacity": 252,
			"units": [
				{
					"active": true,
					"capacity": 252,
					"capacityFactor": 1.4,
					"code": "WAMBOWF1",
					"currentPower": 3.573,
					"lastSeen": "2026-03-18T12:00:00+10:00"
				}
			]
		},
		{
			"active": true,
			"capacityFactor": 4.5,
			"code": "WATERLWF",
			"currentPower": 5.9,
			"lat": -33.991095,
			"lng": 138.915723,
			"name": "Waterloo",
			"network": "NEM",
			"region": "SA1",
			"totalCapacity": 130.8,
			"units": [
				{
					"active": true,
					"capacity": 130.8,
					"capacityFactor": 4.5,
					"code": "WATERLWF",
					"currentPower": 5.9,
					"lastSeen": "2026-03-18T12:00:00+10:00"
				}
			]
		},
		{
			"active": true,
			"capacityFactor": 35,
			"code": "WPWF",
			"currentPower": 31.83,
			"lat": -35.11541,
			"lng": 137.718672,
			"name": "Wattle Point",
			"network": "NEM",
			"region": "SA1",
			"totalCapacity": 91,
			"units": [
				{
					"active": true,
					"capacity": 91,
					"capacityFactor": 35,
					"code": "WPWF",
					"currentPower": 31.83,
					"lastSeen": "2026-03-18T12:00:00+10:00"
				}
			]
		},
		{
			"active": true,
			"capacityFactor": 4.9,
			"code": "WAUBRAWF",
			"currentPower": 9.393,
			"lat": -37.357979,
			"lng": 143.5926,
			"name": "Waubra",
			"network": "NEM",
			"region": "VIC1",
			"totalCapacity": 192,
			"units": [
				{
					"active": true,
					"capacity": 192,
					"capacityFactor": 4.9,
					"code": "WAUBRAWF",
					"currentPower": 9.393,
					"lastSeen": "2026-03-18T02:25:00+10:00"
				}
			]
		},
		{
			"active": true,
			"capacityFactor": 7.5,
			"code": "WRWF1",
			"currentPower": 13.0465,
			"lat": -29.7718,
			"lng": 151.5755,
			"name": "White Rock Wind Farm",
			"network": "NEM",
			"region": "NSW1",
			"totalCapacity": 175,
			"units": [
				{
					"active": true,
					"capacity": 175,
					"capacityFactor": 7.5,
					"code": "WRWF1",
					"currentPower": 13.0465,
					"lastSeen": "2026-03-18T12:00:00+10:00"
				}
			]
		},
		{
			"active": true,
			"capacityFactor": 10.7,
			"code": "WGWF",
			"currentPower": 12.7,
			"lat": -33.393569,
			"lng": 138.84821,
			"name": "Willogoleche",
			"network": "NEM",
			"region": "SA1",
			"totalCapacity": 119,
			"units": [
				{
					"active": true,
					"capacity": 119,
					"capacityFactor": 10.7,
					"code": "WGWF1",
					"currentPower": 12.7,
					"lastSeen": "2026-03-18T12:00:00+10:00"
				}
			]
		},
		{
			"active": false,
			"capacityFactor": 0,
			"code": "WOODLWN",
			"currentPower": 0,
			"lat": -35.081675,
			"lng": 149.570511,
			"name": "Woodlawn",
			"network": "NEM",
			"region": "NSW1",
			"totalCapacity": 48.3,
			"units": [
				{
					"active": true,
					"capacity": 48.3,
					"capacityFactor": 0,
					"code": "WOODLWN1",
					"currentPower": 0,
					"lastSeen": "2026-03-18T12:00:00+10:00"
				}
			]
		},
		{
			"active": true,
			"capacityFactor": 11.7,
			"code": "WOOLNTH1",
			"currentPower": 16.36,
			"lat": -40.736375,
			"lng": 144.694821,
			"name": "Woolnorth",
			"network": "NEM",
			"region": "TAS1",
			"totalCapacity": 140,
			"units": [
				{
					"active": true,
					"capacity": 140,
					"capacityFactor": 11.7,
					"code": "WOOLNTH1",
					"currentPower": 16.36,
					"lastSeen": "2026-03-18T12:00:00+10:00"
				}
			]
		},
		{
			"active": false,
			"capacityFactor": 0,
			"code": "YSWF",
			"currentPower": 0,
			"lat": -37.716474,
			"lng": 144.241947,
			"name": "Yaloak South",
			"network": "NEM",
			"region": "VIC1",
			"totalCapacity": 28.7,
			"units": [
				{
					"active": true,
					"capacity": 28.7,
					"capacityFactor": 0,
					"code": "YSWF1",
					"currentPower": 0,
					"lastSeen": "2026-03-18T10:55:00+10:00"
				}
			]
		},
		{
			"active": true,
			"capacityFactor": 19,
			"code": "YAMBUK",
			"currentPower": 5.7,
			"lat": -38.305278,
			"lng": 142.018439,
			"name": "Yambuk",
			"network": "NEM",
			"region": "VIC1",
			"totalCapacity": 30,
			"units": [
				{
					"active": true,
					"capacity": 30,
					"capacityFactor": 19,
					"code": "YAMBUKWF",
					"currentPower": 5.7,
					"lastSeen": "2026-03-18T12:00:00+10:00"
				}
			]
		},
		{
			"active": true,
			"capacityFactor": 5.4,
			"code": "YENDONWF",
			"currentPower": 7.75,
			"lat": -37.630952,
			"lng": 144.022463,
			"name": "Yendon",
			"network": "NEM",
			"region": "VIC1",
			"totalCapacity": 144.4,
			"units": [
				{
					"active": true,
					"capacity": 144.4,
					"capacityFactor": 5.4,
					"code": "YENDWF1",
					"currentPower": 7.75,
					"lastSeen": "2026-03-18T10:30:00+10:00"
				}
			]
		},
		{
			"active": false,
			"capacityFactor": 0,
			"code": "ALBANY",
			"currentPower": 0,
			"lat": -35.065835,
			"lng": 117.797506,
			"name": "Albany",
			"network": "WEM",
			"region": "WEM",
			"totalCapacity": 21.6,
			"units": [
				{
					"active": false,
					"capacity": 21.6,
					"capacityFactor": 0,
					"code": "ALBANY_WF1",
					"currentPower": 0,
					"lastSeen": "2026-03-17T07:55:00+10:00"
				}
			]
		},
		{
			"active": false,
			"capacityFactor": 0,
			"code": "BADGINGARRA",
			"currentPower": 0,
			"lat": -30.439924,
			"lng": 115.324045,
			"name": "Badgingarra",
			"network": "WEM",
			"region": "WEM",
			"totalCapacity": 130,
			"units": [
				{
					"active": false,
					"capacity": 130,
					"capacityFactor": 0,
					"code": "BADGINGARRA_WF1",
					"currentPower": 0,
					"lastSeen": "2026-03-17T07:55:00+08:00"
				}
			]
		},
		{
			"active": false,
			"capacityFactor": 0,
			"code": "BLAIRFOX_BEROSRD_WF",
			"currentPower": 0,
			"lat": -29.957885,
			"lng": 115.362947,
			"name": "Beros Road",
			"network": "WEM",
			"region": "WEM",
			"totalCapacity": 9.5,
			"units": [
				{
					"active": false,
					"capacity": 9.5,
					"capacityFactor": 0,
					"code": "BLAIRFOX_BEROSRD_WF1",
					"currentPower": 0,
					"lastSeen": "2026-03-17T07:55:00+08:00"
				}
			]
		},
		{
			"active": false,
			"capacityFactor": 0,
			"code": "BREMER_BAY",
			"currentPower": 0,
			"lat": -34.399033,
			"lng": 119.389377,
			"name": "Bremer Bay",
			"network": "WEM",
			"region": "WEM",
			"totalCapacity": 0.6,
			"units": [
				{
					"active": false,
					"capacity": 0.6,
					"capacityFactor": 0,
					"code": "BREMER_BAY_WF1",
					"currentPower": 0,
					"lastSeen": "2026-03-17T07:55:00+08:00"
				}
			]
		},
		{
			"active": false,
			"capacityFactor": 0,
			"code": "INVESTEC_COLLGAR",
			"currentPower": 0,
			"lat": -31.59751,
			"lng": 118.490597,
			"name": "Collgar",
			"network": "WEM",
			"region": "WEM",
			"totalCapacity": 222,
			"units": [
				{
					"active": false,
					"capacity": 222,
					"capacityFactor": 0,
					"code": "INVESTEC_COLLGAR_WF1",
					"currentPower": 0,
					"lastSeen": "2026-03-17T07:55:00+08:00"
				}
			]
		},
		{
			"active": false,
			"capacityFactor": 0,
			"code": "DCWL_DENMARK",
			"currentPower": 0,
			"lat": -35.036971,
			"lng": 117.319012,
			"name": "Denmark",
			"network": "WEM",
			"region": "WEM",
			"totalCapacity": 1.44,
			"units": [
				{
					"active": false,
					"capacity": 1.44,
					"capacityFactor": 0,
					"code": "DCWL_DENMARK_WF1",
					"currentPower": 0,
					"lastSeen": "2026-03-17T07:55:00+08:00"
				}
			]
		},
		{
			"active": false,
			"capacityFactor": 0,
			"code": "EDWFMAN",
			"currentPower": 0,
			"lat": -30.475647,
			"lng": 115.379052,
			"name": "Emu Downs",
			"network": "WEM",
			"region": "WEM",
			"totalCapacity": 79.2,
			"units": [
				{
					"active": false,
					"capacity": 79.2,
					"capacityFactor": 0,
					"code": "EDWFMAN_WF1",
					"currentPower": 0,
					"lastSeen": "2026-03-17T07:55:00+08:00"
				}
			]
		},
		{
			"active": false,
			"capacityFactor": 0,
			"code": "FLATROCKS",
			"currentPower": 0,
			"lat": -33.992789,
			"lng": 117.354335,
			"name": "Flat Rocks",
			"network": "WEM",
			"region": "WEM",
			"totalCapacity": 75.6,
			"units": [
				{
					"active": false,
					"capacity": 75.6,
					"capacityFactor": 0,
					"code": "FLATROCKS_WF1",
					"currentPower": 0,
					"lastSeen": "2026-03-17T07:55:00+08:00"
				}
			]
		},
		{
			"active": false,
			"capacityFactor": 0,
			"code": "GRASMERE",
			"currentPower": 0,
			"lat": -35.065835,
			"lng": 117.797506,
			"name": "Grasmere",
			"network": "WEM",
			"region": "WEM",
			"totalCapacity": 13.8,
			"units": [
				{
					"active": false,
					"capacity": 13.8,
					"capacityFactor": 0,
					"code": "GRASMERE_WF1",
					"currentPower": 0,
					"lastSeen": "2026-03-17T07:55:00+08:00"
				}
			]
		},
		{
			"active": false,
			"capacityFactor": 0,
			"code": "KALBARRI",
			"currentPower": 0,
			"lat": -27.898303,
			"lng": 114.192354,
			"name": "Kalbarri",
			"network": "WEM",
			"region": "WEM",
			"totalCapacity": 1.6,
			"units": [
				{
					"active": false,
					"capacity": 1.6,
					"capacityFactor": 0,
					"code": "KALBARRI_WF1",
					"currentPower": 0,
					"lastSeen": "2026-03-17T07:55:00+08:00"
				}
			]
		},
		{
			"active": false,
			"capacityFactor": 0,
			"code": "BLAIRFOX_KARAKIN",
			"currentPower": 0,
			"lat": -30.942242,
			"lng": 115.366613,
			"name": "Karakin",
			"network": "WEM",
			"region": "WEM",
			"totalCapacity": 5,
			"units": [
				{
					"active": false,
					"capacity": 5,
					"capacityFactor": 0,
					"code": "BLAIRFOX_KARAKIN_WF1",
					"currentPower": 0,
					"lastSeen": "2026-03-17T07:55:00+08:00"
				}
			]
		},
		{
			"active": false,
			"capacityFactor": 0,
			"code": "SKYFRM_MTBARKER",
			"currentPower": 0,
			"lat": -34.601163,
			"lng": 117.643904,
			"name": "Mount Barker",
			"network": "WEM",
			"region": "WEM",
			"totalCapacity": 2.43,
			"units": [
				{
					"active": false,
					"capacity": 2.43,
					"capacityFactor": 0,
					"code": "SKYFRM_MTBARKER_WF1",
					"currentPower": 0,
					"lastSeen": "2026-03-17T07:55:00+08:00"
				}
			]
		},
		{
			"active": false,
			"capacityFactor": 0,
			"code": "MWF_MUMBIDA",
			"currentPower": 0,
			"lat": -29.011063,
			"lng": 114.966228,
			"name": "Mumbida",
			"network": "WEM",
			"region": "WEM",
			"totalCapacity": 55,
			"units": [
				{
					"active": false,
					"capacity": 55,
					"capacityFactor": 0,
					"code": "MWF_MUMBIDA_WF1",
					"currentPower": 0,
					"lastSeen": "2026-03-17T07:55:00+08:00"
				}
			]
		},
		{
			"active": false,
			"capacityFactor": 0,
			"code": "ALINTA_WWF",
			"currentPower": 0,
			"lat": -28.902492,
			"lng": 114.892717,
			"name": "Walkaway",
			"network": "WEM",
			"region": "WEM",
			"totalCapacity": 89.1,
			"units": [
				{
					"active": false,
					"capacity": 89.1,
					"capacityFactor": 0,
					"code": "ALINTA_WWF",
					"currentPower": 0,
					"lastSeen": "2026-03-17T07:55:00+08:00"
				}
			]
		},
		{
			"active": false,
			"capacityFactor": 0,
			"code": "WARRADARGE",
			"currentPower": 0,
			"lat": -30.041742,
			"lng": 115.346019,
			"name": "Warradarge",
			"network": "WEM",
			"region": "WEM",
			"totalCapacity": 180,
			"units": [
				{
					"active": false,
					"capacity": 180,
					"capacityFactor": 0,
					"code": "WARRADARGE_WF1",
					"currentPower": 0,
					"lastSeen": "2026-03-17T07:55:00+08:00"
				}
			]
		},
		{
			"active": false,
			"capacityFactor": 0,
			"code": "BLAIRFOX_WESTHILLS",
			"currentPower": 0,
			"lat": -30.858103,
			"lng": 115.463261,
			"name": "West Hills",
			"network": "WEM",
			"region": "WEM",
			"totalCapacity": 5,
			"units": [
				{
					"active": false,
					"capacity": 5,
					"capacityFactor": 0,
					"code": "BLAIRFOX_WESTHILLS_WF3",
					"currentPower": 0,
					"lastSeen": "2026-03-17T07:55:00+08:00"
				}
			]
		},
		{
			"active": false,
			"capacityFactor": 0,
			"code": "YANDIN",
			"currentPower": 0,
			"lat": -30.680971,
			"lng": 115.694249,
			"name": "Yandin",
			"network": "WEM",
			"region": "WEM",
			"totalCapacity": 214,
			"units": [
				{
					"active": false,
					"capacity": 214,
					"capacityFactor": 0,
					"code": "YANDIN_WF1",
					"currentPower": 0,
					"lastSeen": "2026-03-17T07:55:00+08:00"
				}
			]
		}
	],
	"lastUpdated": "2026-03-19T05:31:55.195Z",
	"totalCapacity": 15531.56,
	"totalPower": 1032.9733999999999
}
